stop_id,stop_code,stop_name,stop_lat,stop_lon,zone_id,location_type
5562,,Zinkoenea 2,43.267855907329,-1.973321037772311,1.0,0
1381,,Sidrerias Hernani,43.26597557234206,-1.9704940054633595,1.0,0
5547,,Zinkoenea,43.26828192915117,-1.973634253315415,1.0,0
5558,,Elkano,43.2670400845014,-1.9767356030447905,1.0,0
5548,,Florida 23 (lidl),43.27032228117637,-1.9712217050848635,1.0,0
5549,,Florida 69 ( Etxe Haundi),43.27195876905116,-1.9669673758958053,1.0,0
5550,,Florida 100,43.272451473486754,-1.9656897704931275,1.0,0
5551,,Etxeberri (frontoia),43.273462048519306,-1.965919118621476,1.0,0
5552,,Cumbre,43.27339119381185,-1.964059514025568,1.0,0
5553,,Bestizan,43.27302258499613,-1.9631292089238268,1.0,0
5554,,Bolatoki,43.27236877416209,-1.9655063261217864,1.0,0
5555,,Florida 69 (etxe Haundi 2),43.27204146604585,-1.967150821069627,1.0,0
5556,,Sagastialde,43.27168421370378,-1.9704717136206933,1.0,0
5557,,Antziola,43.27237049031489,-1.9767079072565867,1.0,0
2501,,Antziola Auzoa 17,43.27150321320363,-1.9763897228517564,1.0,0
2516,,Antziola 10,43.26961185100415,-1.9753370469472469,1.0,0
5177,,Urbieta Kalea,43.26751177401454,-1.9771220056673675,1.0,0
4102,,Izpizua Kalea - Aratz Ikastetxea,43.265060104533845,-1.9788634314046127,1.0,0
5563,,ZikuÃ±aga Goia,43.26209003021763,-1.967984412741552,1.0,0
5564,,ZikuÃ±aga Auzoa,43.26347173045934,-1.968429276658062,1.0,0
1734,,Karabel Biribilgunea,43.2660289491016,-1.968423056306524,1.0,0
337,,Santa Barbara Bailara - Hilerria,43.26185026836962,-1.9793975991735329,1.0,0
1610,,Karabel Zubia,43.26591232871188,-1.97047042798568,1.0,0
2524,,Marieluts,43.26943564824665,-1.9808111544235687,1.0,0
5559,,Osasun Zentroa,43.26758600243034,-1.977367203378203,1.0,0
5561,,Institutoa,43.26179734860699,-1.9795216919729373,1.0,0
1614,,Portu,43.26320858390293,-1.9742123418836883,1.0,0
4056,,Fermin CalbetÃ³n,43.339347663823816,-1.7889074092422743,9.0,0
100,,Colon-zabaltza,43.34010698708233,-1.7925933105238414,9.0,0
1287,,Colon 52-topo,43.34080278574313,-1.7962435485932609,9.0,0
4178,,Hondarribia Kalea,43.34248958616137,-1.7990971071288415,9.0,0
102,,Mendelu Kalea 17,43.34714876868011,-1.8011890863975883,9.0,0
1288,,N-638 - Amute,43.35119645809997,-1.7982097663410808,9.0,0
57,,Aeropuerto San Sebastian,43.35673940848777,-1.7944353759924103,9.0,0
52,,Sabin Arana Kalea 3,43.36173463605476,-1.789967728979747,9.0,0
7195,,Matxin Arzu-itsas Etxea,43.36730489539293,-1.793053613408263,9.0,0
104,,Itsasargi K. 20 - La Muela,43.371253161562905,-1.793469028735636,9.0,0
4047,,Foru Kalea-arroka,43.3747899499956,-1.7967070091385682,9.0,0
1294,,RamÃ³n Iribarren 15- Iterlimen,43.38032517320179,-1.7981900123937549,9.0,0
1292,,Ramon Iribarren Pas. - Lurgorri,43.38367978280345,-1.7960990758938418,9.0,0
654,,Gipuzkoa Plaza 11,43.32104748620295,-1.9816383445680348,1.0,0
24,,Mirakruz K. 26,43.32221825513564,-1.9736022860926992,1.0,0
108,,Jai Alai,43.32206370193461,-1.9664393885236355,1.0,0
4050,,Jose Elosegi 2 - Ategorrieta,43.32170996112625,-1.9592059308115368,1.0,0
27,,Mirakruz Gaina,43.3212761088388,-1.948200073349171,1.0,0
651,,Jose Elosegi 111,43.32051085946552,-1.9433295162440007,1.0,0
28,,Jose Elosegi 134 - Herrera,43.319950411172925,-1.9382335287732315,1.0,0
111,,Oleta / Escalerillas,43.32125188909426,-1.9310207970405555,1.0,0
4014,,Buenavista,43.32077783140341,-1.921767195042352,1.0,0
30,,Nafarroa Hiribidea 5,43.319354328202046,-1.9188202412883215,1.0,0
208,,Nafarroa Hiribidea 24,43.31813372466696,-1.9154381885716123,1.0,0
179,,Sorgintxulo 11,43.316331712263406,-1.9096372661918823,1.0,0
180,,Kristobal Gamon Ikastetxea,43.31761994989249,-1.9078137374189768,1.0,0
181,,Alaberga.telefonica,43.31520447525814,-1.9075733755183988,1.0,0
182,,Beraungo Anbulategia,43.31414276783825,-1.9104902817806635,1.0,0
1715,,Galtzaraborda Etorb. 61,43.31168715885521,-1.9126550737721213,1.0,0
1716,,Galtzaraborda Etorb. - Koldo Mitxelena,43.31095259527432,-1.9083277348253151,1.0,0
126,,Iparralde Etorbidea-eliza,43.30010931519302,-1.8601320847289469,1.0,0
130,,Arraskularre,43.29669413401504,-1.858075491035952,1.0,0
131,,Altzibar,43.29345365657221,-1.857285553442774,1.0,0
132,,PeÃ±ene,43.29262275195655,-1.8597418716432237,1.0,0
133,,Iturriotz,43.2931777102426,-1.8657471649933592,1.0,0
134,,Ibarre,43.29626797136786,-1.872297424207872,1.0,0
135,,Ugaldetxo,43.299051754715016,-1.8770170496237228,1.0,0
4105,,Astigarragako Bidea 3,43.29952793501639,-1.8805835399207695,1.0,0
136,,Mamut Merk.gunea,43.30117741889679,-1.8816751944623609,1.0,0
137,,Arragua,43.30894180808331,-1.8819397368032305,1.0,0
4166,,Nafarroa Hiribidea 2,43.31080690553055,-1.884827931442992,1.0,0
80,,Nafarroa Hiribidea,43.31073841601165,-1.8907479365651865,1.0,0
79,,Gamon Zumardia,43.31279749947261,-1.89696237712492,1.0,0
138,,Diputazio Pl.,43.31495943401207,-1.9026697915164077,1.0,0
139,,"Kaputxinoak, Biribilgunea",43.317663075256846,-1.912338860719475,1.0,0
78,,Renfe,43.31898254931637,-1.9175935931880457,1.0,0
648,,Buenavista,43.32091310731408,-1.92178946813,1.0,0
140,,Oleta / Escalerillas,43.321373766723305,-1.9315366416386084,1.0,0
649,,Herrera,43.31992115123745,-1.938961662042508,1.0,0
650,,Gaiztarro,43.3207190667137,-1.943449235210556,1.0,0
174,,Mirakruz Gaina,43.321401593247074,-1.9500971760781969,1.0,0
177,,Ategorrieta 65,43.32196159516142,-1.9621245612510176,1.0,0
95,,Nafarroa Hirib. 31,43.32328757569839,-1.967355968600396,1.0,0
142,,Nafarroa Hirib. 7 - Okendo Kultur Etxea,43.32549299300779,-1.9702787049624864,1.0,0
96,,Zurriola - Kursaal,43.32471415035419,-1.976803993598501,1.0,0
653,,Gipuzkoa Plaza 10,43.32129199627484,-1.981794587845425,1.0,0
5012,,Txingudi Merk. Gunea,43.32039853230428,-1.8362220550805524,9.0,0
5970,,Araso Biribilgunea,43.32319135662581,-1.8337144229180489,9.0,0
5976,,Andrearriaga 14,43.328502564770666,-1.8195393408953744,9.0,0
45,,Elizatxo Hiribidea 60,43.33098540059368,-1.81408860027299,9.0,0
5977,,Elizatxo Hiribidea-piketazaharra,43.33196751369219,-1.8072235570781088,9.0,0
5974,,Gobaragin Kalea-lavanderas,43.33375412779399,-1.8075833176469625,9.0,0
5980,,Monte Aldabe 49,43.33829739696593,-1.8106648293852683,9.0,0
214,,Puiana,43.340486231237925,-1.8124726091214411,9.0,0
4071,,Bidasoa Ospitalea,43.3416734031618,-1.814941536470777,9.0,0
7072,,Aristegi Enbajadorea,43.339686834680144,-1.8117973431417336,9.0,0
4728,,Letxunborro Hirib. - Gibanaka,43.343673973310295,-1.8055755566138925,9.0,0
50,,Kaputxinoak,43.35283859086231,-1.7976714497363857,9.0,0
1290,,Kosta Kalea 3dir. Hondarribia,43.3581169301082,-1.7969872234505428,9.0,0
5864,,Minasoroeta Kalea 17,43.3611418822666,-1.7935213543490416,9.0,0
5275,,Sabin Arana Goiri 8 Parean,43.36463863505876,-1.791255238630972,9.0,0
1296,,Ramon Iribarren Pas 15 - Iterlimen,43.38072296558637,-1.7983426375410934,9.0,0
4054,,Foru Kalea- Arroka,43.37466534458717,-1.7968452535453134,9.0,0
1297,,Foru Kalea 3,43.37208919351004,-1.794193041302936,9.0,0
54,,Itsasargi 3,43.36938313318543,-1.7937406118130443,9.0,0
55,,Bernat Etxepare Kalea - Correos,43.36598715590715,-1.7927588543336073,9.0,0
56,,Sabin Arana Kalea,43.361888591000096,-1.7900510562569336,9.0,0
4058,,Minasoroeta-zumardia,43.36135209413691,-1.7921103188002776,9.0,0
4730,,Santa Engrazia 8,43.360431806582014,-1.7953495204220458,9.0,0
4137,,Kosta Kalea 17,43.35577779994742,-1.7980329666235395,9.0,0
4060,,Kosta Kalea 49,43.35296812687906,-1.7980020521829403,9.0,0
105,,Mendelu Kalea 2,43.34724073301742,-1.801372347815383,9.0,0
91,,Hondarribia K. 25 - Gurutze Gorria,43.34327992379678,-1.7997600776593217,9.0,0
106,,Zubiaurre Kalea 5,43.34175947889074,-1.7990251411444105,9.0,0
1483,,Colon Pas. 43,43.34079612006727,-1.796465742612663,9.0,0
90,,Gipuzkoa Hirib. 6,43.3397593551916,-1.79463573656336,9.0,0
6156,,Euskal Herria Etorbidea Dir. Larreaundi,43.33412188879558,-1.7937110816495712,9.0,0
345,,Larreaundi,43.3334470173643,-1.7894934318087543,9.0,0
7074,,Urdanibia Plaza,43.33706619044373,-1.7860414551961334,9.0,0
31,,Kaputxinoak,43.317445684931535,-1.9112575141052248,1.0,0
216,,Nafarroa Hirib. 75,43.31482332657109,-1.9025612567844887,1.0,0
34,,Gamon Zumardia,43.3125788151596,-1.8966950482658065,1.0,0
37,,Nafarroa Hiribidea,43.31050846873573,-1.8893217590550972,1.0,0
112,,Lartzabal,43.31043117707392,-1.8841566149150144,1.0,0
38,,Lintzirin Pol,43.31446931238539,-1.8753890245764,1.0,0
83,,Lanbarren Pol.,43.319598934212834,-1.8677962325100128,1.0,0
42,,Gaintxurizketa Gaina,43.330079141057006,-1.8487665568272744,9.0,0
43,,Letxumborro 59,43.33003435883044,-1.8231360498424896,9.0,0
4072,,Aldabe Mendia K.13,43.33963041113059,-1.81070048950216,9.0,0
4068,,Zubieta 16 - Gibeleta,43.3442262000623,-1.804997203601022,9.0,0
4725,,Madalengain,43.36808032758142,-1.7957165206118555,9.0,0
4729,,Sokoa,43.37183715658712,-1.7967653976258329,9.0,0
58,,N-638 - Amute,43.35132508519448,-1.798454006526927,9.0,0
89,,Elizatxo Hirib. 14 - La Salle,43.335294790554826,-1.799066218402816,9.0,0
5978,,Elizatxo Hiribidea 36 - Oinaurre,43.33272396631652,-1.805506498145813,9.0,0
5973,,Elizatxo Hiribidea 54,43.33148327744111,-1.810008390238664,9.0,0
86,,Elizatxo Hiribidea 62- Bentak,43.33087380760534,-1.815484603162844,9.0,0
85,,Letxunborro 59 - Suhiltzaileak,43.33019006738046,-1.8233920707323736,9.0,0
84,,Gaintxurizketa Gaina,43.32997947376747,-1.8504952861307,1.0,0
39,,Lanbarren Pol.,43.32064541546394,-1.867086164825894,1.0,0
82,,Gi-636 - Lintzirin,43.31348793391905,-1.8772321542935912,1.0,0
349,,Miramon Pasealekua -poliklinika Ii,43.29026306150234,-1.979810103155116,1.0,0
1781,,Begiristain Doktorea 121 - Onkologikoa,43.29165665127942,-1.9735370691533445,1.0,0
350,,Begiristain Doktorea 115 - Ospitalea,43.29279068643096,-1.9704731941354727,1.0,0
714,,Zorroaga 39 - Illunbe,43.30091735707823,-1.96799359865572,1.0,0
258,,Toribio Altzaga Kalea - Arcco,43.305010872254144,-1.9736082899697331,1.0,0
736,,Barcelona Hiribidea 28,43.311126453501,-1.9717790544741125,1.0,0
7250,,Molinao,43.31559385682672,-1.916321922826624,1.0,0
824,,Kiroldegia,43.31894070449119,-1.8999960022174611,1.0,0
147,,Jaizkibel Etorb. - Ijurko,43.3214462759185,-1.897434880990662,1.0,0
4104,,San Roque,43.3242508827349,-1.914823684986728,1.0,0
817,,Juan Xxiii - Frontoia,43.32360232520211,-1.914798230525038,1.0,0
202,,Tolosa Hiribidea - Amerika Plaza,43.30235083809959,-2.0037359600743474,1.0,0
377,,Tolosa Hiribidea - Lorea,43.30502082378884,-2.006343219664006,1.0,0
203,,Tolosa Hiribidea 77 - Unibertsitateak,43.30718187223431,-2.008416452806431,1.0,0
4038,,Tolosa Hiribidea 13 - Magisteritza,43.31227500195036,-2.0069895569693665,1.0,0
380,,Zumalakarregi Hiribidea 11 - Esklabak,43.31480621889056,-2.0019293829303835,1.0,0
51,,Aeropuerto San Sebastian,43.35696045842023,-1.793196992108246,9.0,0
5674,,"Jaitzubia - Bidasoa Ospitalea, Donostirantz",43.34431012811623,-1.816531129573708,9.0,0
1727,,Okendo Kalea 16,43.32182581037861,-1.9810703581497704,1.0,0
4051,,Alto De Miracruz,43.32123761508088,-1.949890341190728,1.0,0
159,,Jose Elosegi 102 - Contadores,43.32117398599944,-1.944933627240484,1.0,0
160,,Bidebieta,43.32191014705297,-1.939827354334492,1.0,0
162,,Euskadi Etorbidea 3,43.32234308506657,-1.9369955464786288,1.0,0
163,,Euskadi Etorbidea-azoka,43.32282364733194,-1.9334845403102088,1.0,0
164,,Gudarien Plaza,43.32306229152868,-1.930113390934011,1.0,0
1708,,Esnabide Kalea 6,43.32487967466387,-1.9261100721849915,1.0,0
4302,,Elizatxo 11,43.33629241732336,-1.7963203251367104,9.0,0
47,,Luis Mariano,43.33943565644992,-1.7946791505139874,9.0,0
53,,Sabin Arana - Ama Guadalupekoa Ikastetxea,43.365568484506944,-1.792335194748118,9.0,0
1717,,Plaza Urbia 1,43.31152145177303,-1.9056664088017172,1.0,0
1718,,Morrongilleta 22,43.311771361042965,-1.902616180154836,1.0,0
185,,Pontika,43.30932564085167,-1.903917893477862,1.0,0
16,,Beraun Kalea 15,43.30933466712799,-1.9086279653089748,1.0,0
833,,Avda. Galtzaraborda 53,43.311318014070594,-1.9117121794583845,1.0,0
189,,Galtzaraborda Anbulategia,43.31352148945813,-1.9114385610486944,1.0,0
191,,Alaberga - TelefÃ³nica,43.3149103247283,-1.9078869349256156,1.0,0
192,,Versalles Dorrea,43.317731516141365,-1.908181703553476,1.0,0
193,,Sorgintxulo 11,43.31637590368605,-1.909550152779808,1.0,0
818,,Lezo Bidea - Meipi,43.32270503231315,-1.9122859057172887,1.0,0
151,,Lezo Erdia,43.32154082056549,-1.8979018221360189,1.0,0
819,,Kiroldegia,43.31899377265699,-1.8998963854885,1.0,0
2126,,"Jaitzubia - Bidasoa Ospitalea, Hondarribirantz",43.34409432270597,-1.81655999732958,9.0,0
169,,Gudarien Plaza,43.32317413265061,-1.9305184256701249,1.0,0
170,,Euskadi Etorbidea 25,43.3229303023863,-1.933334675808091,1.0,0
171,,Euskadi Etorbidea 1,43.32243879293416,-1.9366362172875449,1.0,0
172,,Bidebieta,43.3220553372057,-1.9399481597652128,1.0,0
173,,Jose Elosegi 283- Contadores,43.321382646584695,-1.945102676712705,1.0,0
846,,Colon Pasealekua 13 - Gros,43.323023893847775,-1.9770913622213693,1.0,0
4106,,Aristegi,43.2995925229385,-1.880742625083548,1.0,0
116,,Ugaldetxo,43.29850214290552,-1.8760655616795647,1.0,0
4107,,Rafael Pikabea 37,43.29888912331014,-1.8714722920067104,1.0,0
4108,,Rotonda Karaez Kalea 20,43.29921354003338,-1.867854069969233,1.0,0
4109,,Rafael Pikabea 25,43.29922746317406,-1.8638100957879435,1.0,0
298,,Zumalakarregi Hiribidea 4,43.31510095467928,-2.001653262615529,1.0,0
355,,Tolosa Hiribidea - Zubimusu Parkea,43.31286160574794,-2.006104490421188,1.0,0
346,,Tolosa Hiribidea - Magisteritza,43.31129511264319,-2.0092497316713365,1.0,0
421,,Tolosa Hiribidea 70- Unibertsitatea,43.3070494965334,-2.0087268552480144,1.0,0
356,,Tolosa Hiribidea 112,43.30490785174174,-2.006813584129013,1.0,0
205,,Tolosa Hiribidea 138,43.30223798389832,-2.0042186357836123,1.0,0
113,,Arragua,43.308790809279934,-1.8821521206693883,1.0,0
114,,Talaia,43.30427576754903,-1.8836034308488196,1.0,0
115,,Mamut Merk.gunea,43.30210172997181,-1.882274699579356,1.0,0
7000,,R.arrillaga 6,43.32419412034291,-1.9298221897914012,1.0,0
7001,,Gran Sol 3,43.32493154593781,-1.9306849300435345,1.0,0
7002,,Borda-enea 2,43.32581865551468,-1.932149423284359,1.0,0
7003,,Oiartzun 8,43.32471840050098,-1.9338953984021112,1.0,0
7004,,Ulia 22,43.32557243779016,-1.937617586953904,1.0,0
7005,,Azkuene 35,43.3257330454525,-1.9384288172540844,1.0,0
7006,,Azkuene Pza.,43.32448422826438,-1.9377598881168951,1.0,0
630,,Kasares Pas. - Darieta,43.320196196260845,-1.9259829178257657,1.0,0
631,,Kasares Pas. - Oleta,43.31977022688139,-1.929529869992723,1.0,0
632,,Altza Pas. - Sta. Barbara,43.317535075789415,-1.930272043697277,1.0,0
633,,Larratxo Pas.- Nerecan,43.31663422922093,-1.9340860853592516,1.0,0
7013,,Txapinene Kalea 11- San Martzial,43.31410034032296,-1.9346606299217803,1.0,0
7011,,Lau Haizeta Kalea - Martillun,43.312906226780726,-1.936000927843428,1.0,0
827,,LeosiÃ±eta Kalea - Bianka,43.31356136730897,-1.937703550099906,1.0,0
4112,,Garbera Merk.gunea,43.30822829542504,-1.948153843170372,1.0,0
1702,,Donostia Ibilbidea 38 - Hezegunea,43.28312625806467,-1.9493875997883845,1.0,0
4479,,Donostia Ibilbidea- Industrialgunea,43.28043914627109,-1.9509374469217475,1.0,0
4726,,Baserritar Etorb. 64 -talaia,43.37122742592755,-1.7995793063301877,9.0,0
5971,,Araso Dentro Del PolÃ­gono,43.32475865567,-1.835534469092656,9.0,0
4795,,Urbieta 50,43.31466837073304,-1.981189964043225,1.0,0
217,,Mendeurrenaren Plaza - Centenario,43.312670450057134,-1.9802985067337924,1.0,0
198,,Antso Jakitunaren Hiribidea 26,43.30880351193278,-1.9798452843101344,1.0,0
218,,Aita Donostia Plaza - Anoeta,43.30299176340375,-1.9753806780529009,1.0,0
3940,,Begiristain Doktorea 218 - Onkologikoa,43.29155347991601,-1.974081187074012,1.0,0
5979,,Monte Aldabe 4,43.33837185407271,-1.810897765750475,9.0,0
5975,,Gobaragin Kalea 2,43.33378267838252,-1.8077307834843928,9.0,0
4070,,Letxunborro Puiana Biribilgunea,43.33982613239457,-1.8113381720623496,9.0,0
1701,,Donostia Ibilbidea - Lekueder,43.28046265095848,-1.9505549794357195,1.0,0
4478,,Donostia Ibilbidea - Pelotari Biribilgunea,43.28302722469135,-1.9493893041704369,1.0,0
7012,,Lau Haizeta Kalea - Martillun,43.313012885616985,-1.935851092396477,1.0,0
7014,,Txapinene Kalea 17- San Martzial,43.31414328751261,-1.9344379137799688,1.0,0
641,,Larratxo Pas. - Nerecan,43.31652355053938,-1.9338043861015064,1.0,0
642,,Altza Pas. - Sta. Barbara,43.31756866524896,-1.9300124797165847,1.0,0
646,,Kasares Pas. - Oleta,43.31974298729385,-1.92950568313562,1.0,0
647,,Kasares Pas. - Darieta,43.320365977621385,-1.9258442672305849,1.0,0
152,,Altamira,43.31761859524632,-1.9020299922956252,1.0,0
4300,,Caserio Mendin,43.30346249600064,-1.8741247835365296,1.0,0
7015,,Pikabene 2,43.300512148004,-1.8653272530256155,1.0,0
1477,,Paseo Colon,43.34015028748199,-1.7932833054912314,9.0,0
19,,Arco Topo,43.30806422417802,-1.87967473870273,1.0,0
114,,Talaia,43.30427576754903,-1.8836034308488196,1.0,0
115,,Mamut Merk.gunea,43.30210172997181,-1.882274699579356,1.0,0
4106,,Aristegi,43.2995925229385,-1.880742625083548,1.0,0
116,,Ugaldetxo,43.29850214290552,-1.8760655616795647,1.0,0
4986,,Ibarre,43.29607526637973,-1.8719311527491629,1.0,0
4987,,Iturriotz,43.29269065862468,-1.864757724295102,1.0,0
4988,,Altzibar Bat,43.292444939496825,-1.859067207489012,1.0,0
4989,,Altzibar Bi,43.29316359843065,-1.857093750282362,1.0,0
4985,,Elorrondo 1,43.29611845103622,-1.8581355760463945,1.0,0
4990,,Elorrondo 2,43.29759452188077,-1.8616830922682548,1.0,0
4991,,Anbulategia,43.29893004064357,-1.8610664146162332,1.0,0
4992,,Yon OÃ±atibia,43.29919729933167,-1.8607778723927484,1.0,0
4993,,Mendin,43.30378513961956,-1.873970876683531,1.0,0
4994,,Larrezabaleta,43.30938170662402,-1.873546961110562,1.0,0
4995,,Ganboxa Bidea,43.30855712149043,-1.876681754287829,1.0,0
126,,Iparralde Etorbidea-eliza,43.30010931519302,-1.8601320847289469,1.0,0
4831,,Gurutze,43.30954736415468,-1.8432355657466528,1.0,0
4832,,Ergoien,43.28811038674692,-1.8372693207406452,1.0,0
4833,,Altzibar,43.29285689803852,-1.8552381005601863,1.0,0
4834,,Karrika,43.2829093310241,-1.8527747652726696,1.0,0
133,,Iturriotz,43.2931777102426,-1.8657471649933592,1.0,0
134,,Ibarre,43.29626797136786,-1.872297424207872,1.0,0
4108,,Rotonda Karaez Kalea 20,43.29921354003338,-1.867854069969233,1.0,0
135,,Ugaldetxo,43.299051754715016,-1.8770170496237228,1.0,0
4300,,Caserio Mendin,43.30346249600064,-1.8741247835365296,1.0,0
4616,,Barrio De Antxisu 2,43.24801050634236,-2.019563994030793,1.0,0
405,,Antxisu Bailara 37,43.24872672625631,-2.020131462743824,1.0,0
20,,Oria Hiribidea - Zelaialde,43.252106154815785,-2.019399738852161,1.0,0
7484,,Oria Hiribidea 7 - Eliza,43.253573055333945,-2.0193022852729805,1.0,0
407,,"Zirkuitu Ibilbidea, 17 -basaundi",43.25685058458436,-2.018239452405097,1.0,0
408,,Kale Nagusia - Oztaran,43.26099495394554,-2.0174582547568947,1.0,0
4556,,Nagusia 63,43.26418357444383,-2.0186267846773647,1.0,0
215,,Kale Nagusia 41 - Zumaburu,43.26627993735028,-2.0194802731612325,1.0,0
469,,Bekokale Lasarte,43.267825116654414,-2.0190611613720835,1.0,0
231,,Kalbario Bidea (lasarte-oria),43.268498050058106,-2.0177318749106443,1.0,0
7489,,Buenos Aires Aldapa NÂº 11,43.268596646920905,-2.014538825864001,1.0,0
4559,,Buenos Aires,43.26931095931206,-2.013837246375185,1.0,0
232,,Barrio Zabaleta (lasarte-oria),43.26997663585797,-2.0127174701721406,1.0,0
7487,,Osina Kalea,43.2706895513308,-2.0097731492462025,1.0,0
7488,,Pepenea Kalea,43.270026247837,-2.01116402814705,1.0,0
7486,,Pinutegi Kale Frente NÂº3-5,43.27214413616211,-2.0113761957347704,1.0,0
7485,,Pinutegi Kalea NÂº6-8,43.27276716896564,-2.011575602293783,1.0,0
233,,Goiegi,43.2725740779568,-2.0152879669540997,1.0,0
361,,Donostia Etorbidea -sasoeta Atsobakar,43.27249040190003,-2.018123615019112,1.0,0
383,,Kale Nagusia 4,43.26970719216311,-2.0201276341966774,1.0,0
212,,Kale Nagusia 40 - Zumaburu,43.26609129141407,-2.0195325883387167,1.0,0
4564,,Dia,43.26432063140805,-2.018858689252338,1.0,0
384,,Kale Nagusia 70,43.26167368980104,-2.017853927096679,1.0,0
7490,,Arranbide,43.25931579623779,-2.016955482166213,1.0,0
4565,,Txartel,43.2589557716887,-2.016973595111144,1.0,0
2607,,Basaundi,43.25729100452604,-2.018146136159121,1.0,0
2608,,Iturrigoxo,43.255043675859575,-2.018588790699765,1.0,0
2609,,Oria Gaina,43.25354192575985,-2.018822335401215,1.0,0
386,,Oria Hiribidea,43.25352030288769,-2.0194509623918404,1.0,0
4567,,Txitxardin,43.25084123162774,-2.0199497375893,1.0,0
385,,Zirkuitu Ibilbidea 12 - Basaundi,43.25683426955192,-2.0184368326261417,1.0,0
4560,,Instituto,43.26871190817734,-2.016422274336444,1.0,0
118,,Amorebieta,43.218118255665445,-2.730429191837887,15.0,0
4351,,Magdalena,43.171626092331685,-2.632973818655836,11.0,0
2887,,Matiena - San Blas (dir Donostia),43.16949097891777,-2.6082341623712604,11.0,0
512,,San Andres,43.16988666889521,-2.549388864754756,11.0,0
1553,,"Bizkaia Etorbidea, 11",43.18572447959832,-2.503359982275987,8.0,0
6025,,"Gipuzkoa Etorbidea, 56",43.18051617040259,-2.4984065303397545,8.0,0
6029,,Unibertsitatea,43.178994395446935,-2.4902612366064427,8.0,0
997,,Otaola,43.18147475702142,-2.4831407331583817,8.0,0
850,,Unzaga,43.18400408144223,-2.473053655635133,8.0,0
999,,Bidebarrieta,43.18563969308463,-2.4645979232309863,8.0,0
4417,,Urazandi,43.21630284227775,-2.41364207137223,8.0,0
610,,IÃ±urritza,43.28292851635308,-2.1608906429148105,3.0,0
203,,Tolosa Hiribidea 77 - Unibertsitateak,43.30718187223431,-2.008416452806431,1.0,0
2862,,Donostiako Autobus Geltokia,43.31656267706511,-1.9775327241985927,1.0,0
3943,,Miramon Pasealekua - Poliklinika I,43.29058970160965,-1.9800881567573825,1.0,0
1781,,Begiristain Doktorea 121 - Onkologikoa,43.29165665127942,-1.9735370691533445,1.0,0
350,,Begiristain Doktorea 115 - Ospitalea,43.29279068643096,-1.9704731941354727,1.0,0
260,,Antso Jakitunaren Hiribidea 33,43.30819722595526,-1.97951017822709,1.0,0
2781,,"Askatasunaren Etorb./avda. De La Libertad, 34",43.31931274112328,-1.982999229636107,1.0,0
420,,Zumalakarregi Etorb. 14,43.31448127669487,-2.002871896861321,1.0,0
346,,Tolosa Hiribidea - Magisteritza,43.31129511264319,-2.0092497316713365,1.0,0
826,,Unibertsitatea,43.30685936153231,-2.008606645438753,1.0,0
356,,Tolosa Hiribidea 112,43.30490785174174,-2.006813584129013,1.0,0
6112,,Anibarko Portua 2,43.27748121545183,-2.116697438609861,3.0,0
439,,"Orio-aita Lertxundi, 28",43.27663598244553,-2.1250529443717583,3.0,0
440,,Alto Orio 2,43.27308556183064,-2.1377473992281613,3.0,0
6113,,Talaimendi 2,43.28193935552405,-2.150095235134496,3.0,0
422,,Nafarroa-iÃ±urritza,43.28581565019693,-2.162897032627825,3.0,0
414,,Nafarroa Kalea- Gurutze Gorria,43.28606865179965,-2.169192052616575,3.0,0
423,,Bixkonde 15- Erdigunea,43.28680545852966,-2.175197093251509,3.0,0
1740,,Getaria Frontoia,43.30269485826308,-2.2039312044339225,3.0,0
1328,,Kaminero Etxea,43.31033363458347,-2.22801205722172,3.0,0
6058,,Patxita Etxezarreta,43.2944867132336,-2.2567014689038176,3.0,0
1060,,Zumaia,43.29575244566374,-2.257487357428084,3.0,0
4315,,Txankakoa,43.21557279753003,-2.417034768198218,8.0,0
4316,,Urkizu,43.18692870039944,-2.462962279672899,8.0,0
1124,,"San Juan Kalea, 07",43.185243672436094,-2.4723907989244056,8.0,0
7008,,Zumaiako Geltokia,43.29176773221008,-2.251236752090031,3.0,0
6116,,Oikiako Bidegurutzea 2,43.28249360333692,-2.232295896169944,3.0,0
4044,,Etxabe,43.26582541093381,-2.2348588594639,3.0,0
4043,,Zubialde,43.2601476149482,-2.236815017652562,3.0,0
5055,,Herriko Plaza,43.25565365522684,-2.236710989712106,3.0,0
1736,,Olea Erreka,43.17205876945295,-2.409328919556415,8.0,0
1552,,Zubi Nagusia,43.17409151377581,-2.4141322234809435,8.0,0
1554,,Baltegieta,43.17704276289936,-2.415445132888231,8.0,0
4440,,Maltzaga,43.19295584326149,-2.437359893703086,8.0,0
1003,,Zaturio Baserria,43.201103959042136,-2.4316722394572223,8.0,0
1005,,Sigma Olaso Hilerria-cementerio,43.20913978161809,-2.4216262491881544,8.0,0
6122,,Barrio Sigma 2,43.21236750763897,-2.418875016879426,8.0,0
6022,,Mupen,43.21736150251147,-2.4111325906397982,8.0,0
1007,,Puente Meliton,43.22105291407861,-2.4058148962589527,8.0,0
1008,,San Antolin,43.227798425258,-2.402560023535269,8.0,0
1009,,Arriaga,43.22906431902442,-2.4001217309956955,8.0,0
1010,,Altzola,43.23605840035107,-2.3996467052505657,8.0,0
1011,,Plaza Auzoa,43.24727309760477,-2.39357465002236,8.0,0
1012,,Zubia,43.25060934571484,-2.3893531929998204,8.0,0
1116,,Mendaroko Ospitalea,43.25083260291276,-2.3856430219018367,8.0,0
981,,Zubia,43.25047540205013,-2.389563948567053,8.0,0
6040,,Santuaran,43.25465852710408,-2.38713218028368,8.0,0
6579,,Sasiola,43.29071035312071,-2.363620591532025,8.0,0
1737,,Artzabal,43.28869092559915,-2.361570815427648,8.0,0
986,,Deba Salida,43.29493994793035,-2.355132055577706,8.0,0
980,,Arzabal,43.289016719695056,-2.361863242315245,8.0,0
1758,,Urazamendi,43.29342252378854,-2.3575026098758016,8.0,0
1117,,Mauleon,43.305615745331885,-2.383895589765214,8.0,0
6079,,Eulogio Ulacia Plaza,43.307022026870655,-2.3875434204144885,8.0,0
6041,,Conservas La Mutrikuarra,43.30812749778653,-2.3973225836016314,8.0,0
907,,Saturraran,43.3153412099116,-2.411371167820635,8.0,0
6043,,Ondarroa,43.322894533986485,-2.421682879597486,8.0,0
2865,,Federico Garcia Lorca 2,43.31640708930665,-1.9772516994238745,1.0,0
205,,Tolosa Hiribidea 138,43.30223798389832,-2.0042186357836123,1.0,0
302,,AÃ±orga Hiribidea - AÃ±orga Txiki I,43.2894622687752,-1.998214565680736,1.0,0
303,,AÃ±orga Hiribidea 36 - AÃ±orga I,43.28530054458607,-2.000082408956055,1.0,0
359,,Errekalde Hiribidea 51 - Tren Geltokia,43.27877772938445,-2.006905986330401,1.0,0
6052,,Urbil - Centro Comercial,43.27678410822533,-2.025325677780752,1.0,0
6051,,Salida Urbil,43.27525054945238,-2.02711243066672,1.0,0
430,,"Kalezar Auzoa 9, Eskailerak",43.270629063463886,-2.045016952361542,1.0,0
450,,Usurbil Ayuntamiento,43.270375753289166,-2.051367061872278,1.0,0
6050,,Atxegalde,43.273123258339886,-2.0536781097482,1.0,0
449,,Galardi,43.271445686433815,-2.069810053154161,1.0,0
433,,Aginaga Auzoa - Etxeberri,43.2727954703947,-2.074139552573893,1.0,0
434,,Aginaga Surtidor,43.276753284165714,-2.0725144062233656,1.0,0
435,,Intxaurreta,43.279352157075685,-2.0832588104596867,1.0,0
436,,Sarikola,43.28105968327525,-2.093006724764895,1.0,0
437,,Botaleku,43.27683828972141,-2.0977771738061453,3.0,0
438,,Oliden,43.27601417629866,-2.1109757830480063,3.0,0
6108,,Patxita Etxezarreta,43.29414531577033,-2.2554358988923067,3.0,0
1331,,Kaminero Etxea,43.309661012152745,-2.2244200385652038,3.0,0
1329,,Getaria-erdigunea,43.30268825664226,-2.204276507509754,3.0,0
424,,Torre Luzeako Parkea 2- Erdigunea,43.28666809315569,-2.1748784750922843,3.0,0
425,,Nafarroa Kalea- Sanzenea,43.28598076396782,-2.169489067861358,3.0,0
426,,Nafarroa 54-iÃ±urritza,43.285625738897664,-2.1615561333573337,3.0,0
6056,,Talaimendi,43.28184031636493,-2.150096613883022,3.0,0
6044,,Zudugarai,43.27267093430653,-2.137691637862568,3.0,0
761,,"Orio-aita Lertxundi, 25",43.27661665563577,-2.124880686777767,3.0,0
442,,Anibarko Portua,43.27732653820734,-2.116490167569666,3.0,0
982,,Plaza Auzoa,43.24860531266759,-2.3934875233151733,8.0,0
983,,Altzola,43.23599866592668,-2.4002753950547877,8.0,0
984,,Rodisa,43.22949561363541,-2.399945098908133,8.0,0
985,,San Antolin,43.22792583350551,-2.4028173757986067,8.0,0
4274,,Leruntxiki,43.22252429955788,-2.4065147626776877,8.0,0
987,,Mupen,43.21753270863047,-2.4111555671306792,8.0,0
988,,Carrocerias Elgoibarresas,43.21047368073836,-2.420087128027716,8.0,0
989,,Barrio Sigma,43.20839734462267,-2.4226057702258657,8.0,0
990,,Zaturio Baserria,43.20086304499628,-2.432117588401432,8.0,0
991,,Maltzaga,43.19367763605603,-2.437648636418933,8.0,0
992,,Apalategi,43.19115278431474,-2.446151160055864,8.0,0
993,,Azitain,43.18986416640584,-2.4553311385317804,8.0,0
4441,,Errebal,43.18574552234806,-2.4679810528177586,8.0,0
6078,,Torrekua,43.18455042459839,-2.4802845397817466,8.0,0
1408,,Unibertsitatea,43.18016462742822,-2.4881597303328973,8.0,0
6125,,Avda. Gipuzkoa 23,43.17965816472015,-2.497822941346811,8.0,0
6023,,"Gipuzkoa Etorbidea, 23",43.18450573527043,-2.500576534729864,8.0,0
6027,,"Baldespina Markesa, 14",43.18623101977707,-2.5038850231367684,8.0,0
1756,,Polideport,43.18700455344798,-2.507853567598759,8.0,0
6126,,T.v.a. 2,43.18522541353168,-2.515066609727524,8.0,0
6127,,Ges 2,43.18593754564209,-2.519515635082873,8.0,0
6128,,Urtiaga 2,43.18720465153558,-2.5232097881311706,8.0,0
6129,,Mallabarrena 2,43.18771747868664,-2.5296295579364143,8.0,0
908,,Saturraran,43.31497204493212,-2.411374731175933,8.0,0
6123,,Conservas La Mutrikuarra 2,43.30801684987814,-2.396830465483815,8.0,0
909,,Eulogio Ulacia Plaza,43.30680982379968,-2.388273023300738,8.0,0
910,,Mauleon,43.30548068542847,-2.383896953826105,8.0,0
6137,,Urazamendi 2,43.29439252779936,-2.357060934141173,8.0,0
6124,,Santuaran 2,43.25465925303935,-2.387267687621082,8.0,0
4442,,Malzaga,43.1928025287743,-2.437312073904106,8.0,0
1455,,Sagar-erreka,43.1778167755636,-2.4206792760490625,8.0,0
6047,,Ezozia,43.17758301776863,-2.415439979135783,8.0,0
4459,,EstaziÃ±o,43.17490086647751,-2.4121682347444966,8.0,0
2446,,Unzaga Lateral,43.18447553470608,-2.4737510082031684,8.0,0
4042,,Zubialde,43.260255249381416,-2.2367520701029813,3.0,0
4045,,Etxabe,43.26587150110018,-2.235018464870626,3.0,0
6119,,Oikiako Bidegurutzea 2,43.28258405432524,-2.232356384352178,3.0,0
1118,,Zumaiako Geltokia,43.2919296386202,-2.251210111690788,3.0,0
443,,Oliden,43.27598130797743,-2.109066078264158,3.0,0
444,,Botaleku,43.277142170757394,-2.0974892318180403,3.0,0
454,,Sarikola,43.280967010077504,-2.092675332831869,1.0,0
445,,Intxaurreta,43.27992957111587,-2.082276500714714,1.0,0
446,,Aginaga Surtidor,43.27661933253744,-2.07265200359996,1.0,0
447,,Aginaga Auzoa 12 -  Errazti,43.272375502028105,-2.0745402564436657,1.0,0
448,,"Aginaga Auzoa, 5 - Biona",43.27127732719514,-2.0701453331614075,1.0,0
431,,Usurbil Rotonda,43.271653573409125,-2.0534421027741687,1.0,0
451,,Ugalde Industrialdea - Eskailerak,43.270734119407145,-2.044657951626905,1.0,0
1762,,Ent. Urbil,43.27373957633811,-2.0283811556696625,1.0,0
6110,,Urbil - Centro Comercial 2,43.27493526120692,-2.0218183344377683,1.0,0
375,,Errekalde Hiribidea - Tren Geltokia,43.2785084892053,-2.0070089595881124,1.0,0
342,,AÃ±orga Hiribidea 59 - AÃ±orga Ii,43.285715501437,-1.9991388579819016,1.0,0
343,,AÃ±orga Hiribidea - AÃ±orga Txiki Ii,43.289485067174304,-1.9977334593098717,1.0,0
202,,Tolosa Hiribidea - Amerika Plaza,43.30235083809959,-2.0037359600743474,1.0,0
377,,Tolosa Hiribidea - Lorea,43.30502082378884,-2.006343219664006,1.0,0
4038,,Tolosa Hiribidea 13 - Magisteritza,43.31227500195036,-2.0069895569693665,1.0,0
814,,Zumalakarregi Hirib. 11,43.31447923399172,-2.002637631401178,1.0,0
4779,,Zubieta Plaza,43.31576671673923,-1.9872511779633888,1.0,0
4877,,"Askatasuna/libertad, 3",43.32039913683784,-1.979614277009036,1.0,0
1048,,Aizarnazabal Plaza,43.25243329654574,-2.2358519215901693,3.0,0
4040,,Sebastopol-iraeta,43.25426268438443,-2.2593467972792918,4.0,0
1049,,Zestoa,43.23858712458137,-2.2553984445854063,4.0,0
6900,,Pagatza,43.1377974101253,-2.492202073320625,7.0,0
6135,,Elgeta 2,43.1370386016024,-2.4876219880290096,7.0,0
6136,,Karabieta,43.14808219299788,-2.4804706439320827,7.0,0
1412,,Sostoatarren,43.1821878129263,-2.473635304341079,8.0,0
1991,,Egogain 5,43.18398532888374,-2.474850390759584,8.0,0
75,,Bizkaia Kalea,43.283903953087865,-2.176160699723765,3.0,0
74,,Ibarrola,43.25953594346657,-2.1512816918161355,3.0,0
73,,Lukun,43.255221075612255,-2.1583637856142723,3.0,0
72,,Iturraran,43.2499859477777,-2.1591133979559545,3.0,0
71,,Laurgain,43.24670241575527,-2.163223465816132,3.0,0
70,,Sarrola,43.24277651142456,-2.1669353752651417,3.0,0
69,,Arrospide,43.23920039204072,-2.1642868191250684,3.0,0
1027,,Aia,43.23741186647506,-2.147660038773177,3.0,0
1020,,Etxenagusia,43.24122775101187,-2.1461780980916934,3.0,0
61,,Ostolaza,43.24154583894798,-2.140557183426296,3.0,0
63,,Ilarramendi,43.232777568189,-2.137256830305995,3.0,0
1018,,San Pedro Bailara,43.23610981938445,-2.123120625119141,3.0,0
66,,Errekondo,43.24104059713603,-2.119120874885577,3.0,0
68,,MaÃ±arin-zelai,43.24874733168669,-2.1178026234315186,3.0,0
6114,,Santiago 2,43.26780686517736,-2.1197453736371874,3.0,0
4739,,Tren Geltokia,43.2740060146453,-2.124967392602221,3.0,0
3940,,Begiristain Doktorea 218 - Onkologikoa,43.29155347991601,-1.974081187074012,1.0,0
6024,,Avda. Gipuzkoa 16,43.18363507664363,-2.49915622527197,8.0,0
998,,Escuela De Armeria,43.18352318878037,-2.478152147814792,8.0,0
1000,,Azitain,43.189816624484976,-2.454802383116163,8.0,0
1001,,Apalategi,43.191178467166935,-2.4477384975059,8.0,0
1002,,Maltzaga,43.19361412226773,-2.4375507617835965,8.0,0
6115,,Tren Geltokia,43.27380840867193,-2.1250318407122,3.0,0
813,,Eroski Zarautz,43.28083532056908,-2.1652454007598467,3.0,0
665,,Kiroldegia,43.280978752057976,-2.168866926059948,3.0,0
6036,,Mallabarrena,43.187554893540806,-2.529507746142633,8.0,0
6038,,Urtiaga,43.18726906643742,-2.52354154784114,8.0,0
6034,,Ges,43.185784057591455,-2.5194183936068724,8.0,0
6030,,T.v.a.,43.18507145217571,-2.514858634553905,8.0,0
6033,,"Zehar Kalea, 31",43.18709909185037,-2.508898812117617,8.0,0
198,,Antso Jakitunaren Hiribidea 26,43.30880351193278,-1.9798452843101344,1.0,0
351,,Begiristain Doktorea - Ospitalea Ii,43.29304366017031,-1.970567543749704,1.0,0
1411,,Ipurua,43.18185147219876,-2.474905595678039,8.0,0
925,,Karebieta,43.14823476505165,-2.4803586685765104,7.0,0
4311,,Elgeta,43.137191731802254,-2.487633005346781,7.0,0
4342,,Aparcamiento Arropain,43.36026499145596,-2.506689836388204,10.0,0
4343,,Cruce Oleta .carretera Bi-3405. Direccion Ondarroa,43.34362950473282,-2.505689511809309,10.0,0
4344,,Carretera Bi-3405.alto Milloi. Direccion Ondarroa,43.31402531283644,-2.48183376011756,10.0,0
4345,,Carretera General. Direccion Deba,43.30913794028521,-2.468545988043955,10.0,0
4346,,Poligono Industrial Gardotxa. DirecciÃ³n Deba,43.31901833511788,-2.45567105747379,10.0,0
2012,,KamiÃ±aspi,43.32138954227909,-2.432217197972921,8.0,0
911,,"Hondartza Kalea, 14-15",43.29576638818444,-2.3531878571994054,8.0,0
912,,Itziar,43.27837620564584,-2.332383838044333,8.0,0
1062,,Narrondo,43.28496984071205,-2.265198770795364,3.0,0
6138,,Arroabea,43.27787320816346,-2.270657517392984,4.0,0
2165,,Mardari Auzoa,43.28166104502351,-2.2931176130367894,8.0,0
2167,,Elorriaga Auzoa Dir Deba,43.27917394690122,-2.298667757488883,8.0,0
6121,,Itziar,43.2771654961673,-2.3301417754652243,8.0,0
1424,,Industrialdea,43.272488563465465,-2.3310680152721988,8.0,0
3338,,Mutxiarte 13,43.27649445590302,-2.330876247160862,8.0,0
6008,,N-634 Jatetxea,43.27866224299835,-2.3304827614946126,8.0,0
1426,,Itziarko Kanpigna,43.28701455236933,-2.3391056629806424,8.0,0
903,,Itziar N-634,43.2788912283481,-2.3326863166132643,8.0,0
904,,Alameda,43.29597997269863,-2.352741790876896,8.0,0
4337,,KamiÃ±aspi,43.32137758856162,-2.433438275389333,8.0,0
4338,,Poligono Industrial Gardotxa. DirecciÃ³n Lekeitio,43.31938668086504,-2.455495112863484,10.0,0
4339,,Carretera General. Direccion Lekeitio,43.30905833505464,-2.4688549442456367,10.0,0
4340,,Carretera Bi 3405. Alto Milloi. Direccion Lekeitio,43.31320381296295,-2.481372148891737,10.0,0
4341,,Cruce Oleta. Carretera Bi-3405. Direccion Lekeitio,43.343664561215945,-2.5054671521728986,10.0,0
1425,,Itziarko Kanpigna,43.28720527281261,-2.339387097677429,8.0,0
6120,,N-634 Jatetxea,43.2774952856476,-2.3280307350607945,8.0,0
2166,,Elorriaga Auzoa Dir Zumaia,43.27910146245927,-2.298594643497695,8.0,0
4036,,Arroabea,43.27609415752024,-2.2726752246680846,4.0,0
6107,,Narrondo,43.284580583331575,-2.2634778822284245,3.0,0
1042,,Zestoa,43.24065973870538,-2.25702363713454,4.0,0
1086,,Sebastopol-iraeta,43.253959185125225,-2.259757014116801,4.0,0
1043,,Aizarnazabal,43.25226428120602,-2.2361620099441564,3.0,0
4350,,Magdalena,43.17177913006339,-2.6329605993597123,11.0,0
6007,,Itziar Centro,43.27728319689423,-2.3302514008774806,8.0,0
6032,,"Zehar Kalea, 1",43.18646955771441,-2.504904472945265,8.0,0
5924,5924.0,"ASKATASUNAREN HIRIBIDEA, 28",43.3194785347324,-1.9824045028362864,,0
461,461.0,"URBIETA KALEA, 20",43.3173143876371,-1.9830695580633944,,0
217,217.0,MENDEURRENAREN PLAZA - CENTENARIO,43.312670450057134,-1.9802985067337924,,0
198,198.0,"ANTSO JAKITUNAREN HIRIBIDEA, 26",43.3088035119328,-1.9798452843101344,,0
302,302.0,AÃORGA HIRIBIDEA - AÃORGA TXIKI I,43.2894622687752,-1.998214565680736,,0
303,303.0,"AÃORGA HIRIBIDEA, 36 - AÃORGA I",43.28530054458607,-2.000082408956055,,0
358,358.0,"TABERNA-BERRI CINCUENTENARIO, AÃORGA",43.28341357806982,-2.001567695911134,,0
359,359.0,"ERREKALDE HIRIBIDEA, 51 - TREN GELTOKIA",43.27877772938445,-2.006905986330401,,0
361,361.0,DONOSTIA ETORBIDEA -SASOETA ATSOBAKAR,43.27249040190003,-2.018123615019112,,0
383,383.0,"KALE NAGUSIA, 4",43.269707192163125,-2.0201276341966774,,0
212,212.0,"KALE NAGUSIA, 41 - ZUMABURU",43.26609129141407,-2.019532588338717,,0
384,384.0,"KALE NAGUSIA, 70",43.26167368980105,-2.017853927096679,,0
353,353.0,"ZUBIETA KALEA, 14",43.3173080763089,-1.985400427780594,,0
297,297.0,MIRAKONTXA PASEALEKUA-LA PERLA,43.315255121962736,-1.988455847095309,,0
675,675.0,"ZUMALAKARREGI HIRIBIDEA, 8",43.31484438316073,-2.002175390130155,,0
355,355.0,TOLOSA HIRIBIDEA - ZUBIMUSU PARKEA,43.31286160574796,-2.006104490421188,,0
346,346.0,TOLOSA HIRIBIDEA - MAGISTERITZA,43.31129511264319,-2.0092497316713365,,0
421,421.0,"TOLOSA HIRIBIDEA, 70- UNIBERTSITATEA",43.3070494965334,-2.0087268552480144,,0
356,356.0,"TOLOSA HIRIBIDEA, 112",43.30490785174174,-2.006813584129013,,0
205,205.0,TOLOSA HIRIBIDEA 138,43.30223798389832,-2.0042186357836123,,0
301,301.0,"CAMINO DE ZUBIBERRI, CASA ORAMIL (DONOSTIA)",43.298894935511406,-2.0008459126188383,,0
408,408.0,KALE NAGUSIA - OZTARAN,43.26099495394554,-2.0174582547568947,,0
215,215.0,"KALE NAGUSIA, 40 - ZUMABURU",43.26627993735028,-2.0194802731612325,,0
409,409.0,"KALE NAGUSIA, 5",43.26961589293281,-2.019981229455708,,0
372,372.0,DONOSTIA ETORBIDEA - SASOETA ORIAMENDI,43.272248795016736,-2.0183000214146327,,0
375,375.0,ERREKALDE HIRIBIDEA - TREN GELTOKIA,43.27853581975279,-2.0070454878673325,,0
376,376.0,"TABERNA-BERRI CINCUENTENARIO, AÃORGA (DONOSTIA)",43.28339352750165,-2.0013338443607247,,0
342,342.0,"AÃORGA HIRIBIDEA, 59 - AÃORGA II",43.285715501437,-1.9991388579819016,,0
343,343.0,AÃORGA HIRIBIDEA - AÃORGA TXIKI II,43.28948506717431,-1.9977334593098717,,0
202,202.0,TOLOSA HIRIBIDEA - AMERIKA PLAZA,43.302278275927534,-2.0036754998067003,,0
377,377.0,TOLOSA HIRIBIDEA - LOREA,43.30502082378884,-2.006343219664006,,0
203,203.0,"TOLOSA HIRIBIDEA, 77 - UNIBERTSITATEAK",43.30718187223431,-2.008416452806431,,0
4038,4038.0,"TOLOSA HIRIBIDEA, 13 - MAGISTERITZA",43.31227500195036,-2.0069895569693665,,0
380,380.0,"ZUMALAKARREGI HIRIBIDEA, 11 - ESKLABAK",43.31493097142933,-2.001779361710048,,0
348,348.0,"SAN MARTIN KALEA, 57",43.31551353831907,-1.9871320656913336,,0
4270,4270.0,"URBIETA, 28",43.31696963907979,-1.982779339409825,,0
382,382.0,"ETXAIDE KALEA, 3",43.31996007687941,-1.9798559452311852,,0
260,260.0,"ANTSO JAKITUNAREN HIRIBIDEA, 33",43.30819722595527,-1.97951017822709,,0
715,715.0,EASO PLAZA/PLAZA EASO (DONOSTIA),43.31361797588148,-1.9815404593566324,,0
351,351.0,BEGIRISTAIN DOKTOREA - OSPITALEA II,43.29307834114721,-1.970419032491332,,0
3940,3940.0,"BEGIRISTAIN DOKTOREA, 218 - ONKOLOGIKOA",43.29142031278497,-1.9742929821532536,,0
3943,3943.0,MIRAMON PASEALEKUA - POLIKLINIKA I,43.29058970160965,-1.9800881567573825,,0
430,430.0,ESCALERAS,43.27073411940715,-2.044657951626905,,0
1944,1944.0,SAN INAZIO,43.27159085593941,-2.053480043433676,,0
385,385.0,"ZIRKUITU IBILBIDEA, 12 - BASAUNDI",43.25683426955192,-2.0184368326261417,,0
386,386.0,ORIA HIRIBIDEA,43.253520302887694,-2.0194509623918404,,0
433,433.0,ERRASTI,43.27279547039471,-2.074139552573893,,0
370,370.0,"HIPODROMO HIRIBIDEA, 4",43.26925962869177,-2.021490277262544,,0
363,363.0,CRUCE HIPODROMO,43.26765140735575,-2.024017420451872,,0
364,364.0,"IRIGOIEN KALEA ,16 - ZUBIETA",43.270425449695296,-2.0325742832377496,,0
365,365.0,ZUBIETA ESKOLAK (DONOSTIA),43.269499361717706,-2.032736821566208,,0
447,447.0,ERRASTI,43.272375502028105,-2.0745402564436657,,0
448,448.0,GALARDI,43.27127732719514,-2.0701453331614075,,0
451,451.0,ESCALERAS,43.270629063463886,-2.045016952361542,,0
1263,1263.0,ARRAPIDE PASEALEKUA - BUGATI,43.253843662726766,-2.0225132739967413,,0
7484,7484.0,"ORIA HIRIBIDEA, 7 - ELIZA",43.253573055333945,-2.0193022852729805,,0
407,407.0,"ZIRKUITU IBILBIDEA, 17 -BASAUNDI",43.25685058458436,-2.018239452405097,,0
349,349.0,MIRAMON PASEALEKUA -POLIKLINIKA II,43.29055127092376,-1.979817612103372,,0
1781,1781.0,"BEGIRISTAIN DOKTOREA, 121 - ONKOLOGIKOA",43.29165665127942,-1.9735370691533445,,0
350,350.0,"BEGIRISTAIN DOKTOREA, 115 - OSPITALEA",43.29288894363797,-1.970385246458631,,0
366,366.0,BARRIO ZUBIETA (DONOSTIA),43.27058033316718,-2.033853386135667,,0
367,367.0,IRIGOIEN KALEA - ZUBIETA,43.27038881126222,-2.032500927890108,,0
368,368.0,PUENTE ENTRADA HIPODROMO DE LASARTE DONOSTIA,43.26761371207151,-2.0238208698812654,,0
369,369.0,HIPODROMO HIRIBIDEA,43.26921324205165,-2.021330829509601,,0
381,381.0,"SAN MARTIN KALEA, ARTZAI ONA ELIZA AURREAN",43.31743945112729,-1.98194524989934,,0
393,393.0,"KARRIKA KALEA, 2",43.20909602141406,-2.030503586222023,,0
396,396.0,"AITA LARRAMENDI KALEA, 19 - ZUMEA PLAZA",43.21275213508286,-2.0241793677740514,,0
398,398.0,"KALEBERRIA, 10 - RENFE",43.21645122413689,-2.0208085192151515,,0
399,399.0,TXISTOKI IBILBIDEA - ESKAILERAK,43.21909161454566,-2.02315484509186,,0
400,400.0,BAZKARDO - DONOSTIARANTZ,43.2208178991349,-2.024961863676083,,0
405,405.0,"ANTXISU BAILARA, 37",43.24872672625631,-2.020131462743824,,0
20,20.0,ORIA HIRIBIDEA - ZELAIALDE,43.252106154815785,-2.019399738852161,,0
4397,4397.0,BAZKARDO - GASTEIZERANTZ,43.2225429924907,-2.025574644036564,,0
395,395.0,"KARRIKA KALEA, 1",43.20950495908672,-2.029881591099587,,0
1429,1429.0,PEDRO MARI OTAÃO PLAZA,43.19926315715157,-2.0739968059711926,,0
1273,1273.0,ZIZURKILGO BIDEGURUTZEA,43.19137817277553,-2.074374475558689,,0
1274,1274.0,"ERNIO BIDEA, 37",43.19133626951424,-2.0636928886566746,,0
1266,1266.0,"ERNIO BIDEA,28, HIRUBIETA",43.19199410176622,-2.0604584404637225,,0
1276,1276.0,"ERNIO BIDEA, 12 PASUS-ENEA",43.19082847417748,-2.05668588906828,,0
1431,1431.0,ASTEASUKO BIDEGURUTZEA,43.18934597192562,-2.0527214802103604,,0
1242,1242.0,ARROA AUZOA,43.1815139241894,-2.0540484511297805,,0
1243,1243.0,IBAIONDO BAILARA,43.17570677524383,-2.0574231528637097,,0
1244,1244.0,"KALE NAGUSIA, 6",43.16767726284117,-2.067634238085102,,0
971,971.0,"KALE NAGUSIA, 26",43.16462147568465,-2.0694521092191507,,0
1253,1253.0,SANTA LUTZIA,43.14721378589331,-2.068142111901347,,0
1255,1255.0,"ZILAR KALEA, 1 - TRINKETEA",43.16725035836298,-2.066078394598003,,0
1256,1256.0,LASKIBAR BAILARA,43.1736887902108,-2.059496516168516,,0
1427,1427.0,"KALE BERRIA, 6",43.1895168339817,-2.0526942249415496,,0
390,390.0,TXISTOKI IBILBIDEA - APARKALEKUA,43.21851182571391,-2.022745488218507,,0
1238,1238.0,"KALEBERRIA, 22 - RENFE",43.21575828316473,-2.020856542656099,,0
397,397.0,"AITA LARRAMENDI KALEA, 36 - ZUMEA PLAZA",43.21266577589648,-2.02461162925233,,0
394,394.0,SORABILLA,43.20955779122136,-2.035063415630956,,0
1239,1239.0,"UBEGUN INDUSTRIALDEA, 1",43.198330251582114,-2.040557475835417,,0
4303,4303.0,AGARAITZ INDUSTRIALDEA,43.19651397982985,-2.0516752095794657,,0
1241,1241.0,"KALE BERRIA, 10",43.18993262350163,-2.0528846966807706,,0
4398,4398.0,"KALE NAGUSIA, 72 - KIROLDEGIA",43.18520590428938,-2.052970086521269,,0
1248,1248.0,"LARRAMENDI KALEA,11",43.14561153011094,-2.071535974427303,,0
1250,1250.0,"LARRAMENDI KALEA, 1 - ARRAMELE",43.14179151496112,-2.0712863683530065,,0
4399,4399.0,"RONDILLA KALEA, 34- GOROSABEL",43.13931446687285,-2.07341422785845,,0
1096,1096.0,"SAN FRANTZISKO IBILBIDEA, 1- ELIZA",43.136574340348304,-2.0741933485699784,,0
1140,1140.0,ORIA KALEA - ZEZEN PLAZA,43.13338190486087,-2.076946427564848,,0
1251,1251.0,"NAFARROA HIRIBIDEA, 1",43.13492220275628,-2.0736649819826347,,0
937,937.0,"IBAIONDO KALEA, 1",43.13687575320986,-2.0713853640536564,,0
1252,1252.0,"LARRAMENDI KALEA, 8 - ARRAMELE",43.14196188445832,-2.0711977117668963,,0
4215,4215.0,SANTA LUTZIA AUZOA,43.14520999336908,-2.0697712196756988,,0
913,913.0,"KALE BERRIA, 66 - ELIZA",43.186014688738496,-2.0527729980627747,,0
1258,1258.0,"KALE BERRIA, 11",43.18993160470165,-2.0527616482422384,,0
1259,1259.0,KALE BERRIA - BURNI ZUBI,43.1932525173285,-2.053633314621422,,0
4101,4101.0,"GARTZIA GOLDARATZ, 1",43.268191897885885,-1.9736357662147663,,0
4261,4261.0,"ANTZIOLA AUZOA, 40",43.27269879088977,-1.9771706828241409,,0
338,338.0,GALARRETA - FRONTOIA,43.27734215990623,-1.9879750029918704,,0
1943,1943.0,URBIL - EROSKI,43.27601259427356,-2.0214436875262094,,0
496,496.0,TAJAMAR BIRIBILGUNEA,43.27005546859397,-2.0197893377397365,,0
243,243.0,LEARRITZA PASEALEKUA,43.26471861930685,-2.054350465404668,,0
244,244.0,SANTU-ENEA AUZOA,43.26626211439631,-2.0558914377663013,,0
464,464.0,ATAILU INDUSTRIALDEA - BIRIBILGUNEA,43.26784508461368,-2.0524044575142337,,0
1945,1945.0,"SAN INAZIO KALEA, 3",43.27146782151296,-2.0505860828815967,,0
463,463.0,ATAILU INDUSTRIALDEA,43.2679171113395,-2.0524033400864297,,0
256,256.0,"SANTU-ENEA AUZOA, 38",43.26619161281386,-2.056077354085159,,0
266,266.0,LEARRITZA PASEALEKUA,43.27109699685681,-2.0353239440984825,,0
4560,4560.0,INSTITUTO,43.26871190817735,-2.016422274336444,,0
307,307.0,GALARRETA - PARKE TEKNOLOGIKOA,43.27697156097649,-1.9867980475984144,,0
278,278.0,"MARIELUTS AUZOA, 6",43.27030730624491,-1.980611769602188,,0
237,237.0,ZINKOENEA PLAZA,43.26788501765895,-1.9735546683327292,,0
392,392.0,BEGIRISTAIN DOKTOREA- OSPITALEKO APARKALEKUA,43.29260282006919,-1.971610455722138,,0
1176,,Orexa,43.09384383014715,-2.011398767437067,2.0,0
4252,,Legasa Alde,43.09100943457573,-2.0126853055042813,2.0,0
1178,,"Kale Nagusia, 25",43.102026696171166,-2.034308574821164,2.0,0
4253,,Ostatuberri Aldea,43.10566238783771,-2.037250063317184,2.0,0
1180,,"Irunzubi Aldea, 1",43.11467121481094,-2.058299076951406,2.0,0
897,,"Txarama Auzoa, 16",43.11210464593505,-2.0637586802452264,2.0,0
1181,,"Amategi Alde, 127",43.11101450685407,-2.0692077413130865,2.0,0
1182,,Txarama Kalea,43.11530032806093,-2.073592287697656,2.0,0
1183,,"IruÃ±a Etorbidea, Ermita",43.11948256410869,-2.0763195374662207,2.0,0
1184,,"IruÃ±a Etorbidea, Amaroz",43.12641905600805,-2.0789074832200654,2.0,0
1185,,"IruÃ±a Etorbidea, 4 Lurramendi",43.12999606948685,-2.079173458119468,2.0,0
1186,,"Kondeaneko Aldapa, 5",43.13133686527277,-2.075710834785191,2.0,0
889,,"Kondeaneko Aldapa, 3",43.13413112133264,-2.0727178957555807,2.0,0
1167,,"Kondeaneko Aldapa, 22",43.13165970426779,-2.0755461412553013,2.0,0
1168,,"IruÃ±a Etorbidea, 4 - Iurramendi",43.13023926634299,-2.0791821038729363,2.0,0
1169,,"IruÃ±a Etorbidea 22, Amaroz",43.12659210392987,-2.079150760889552,2.0,0
1170,,"IruÃ±a Etorbidea 26, Araxes",43.11908285570878,-2.07700162225622,2.0,0
1172,,Txarama Kalea - Baratzondo Berri,43.1153102272263,-2.0737027614636254,2.0,0
1173,,"Amategi Alde, 127",43.11098889543993,-2.069380197722632,2.0,0
890,,"Txarama Kalea, 19 - Errotazpi",43.11295099845235,-2.060451794716169,2.0,0
1177,,"Irunzubi Aldea, 1",43.11460788617057,-2.058263174150259,2.0,0
4203,,Ostatu Berri Aldea,43.10502086128721,-2.035920574346075,2.0,0
1175,,"Kale Nagusia, 12",43.1023131504784,-2.034107450588793,2.0,0
4204,,Legasa Alde,43.0909917455514,-2.012722449396034,2.0,0
1140,,Oria Kalea - Zezen Plaza,43.13330977675107,-2.0769352173818985,2.0,0
937,,Ibaiondo Kalea 1,43.13687575320986,-2.0713853640536564,2.0,0
1004,,Trinkete Plaza,43.14046649017389,-2.0711219781300487,2.0,0
1095,,"Belate, 1",43.14074607497387,-2.0722859176411568,2.0,0
1197,,"Hernialdeko Bidegurutzea, Zuloaga",43.1504803459535,-2.072310868966158,2.0,0
1187,,"Industrialdea, 11",43.1577853714832,-2.0681536653810677,2.0,0
974,,Anoeta Sarrera - Gi-3650,43.16110708946883,-2.069136433065133,2.0,0
972,,Kale Nagusia 3,43.16751640200293,-2.0677843079912384,2.0,0
1256,,Laskibar Bailara,43.1736887902108,-2.059496516168516,2.0,0
4398,,Kale Nagusia 72 - Kiroldegia,43.18520590428938,-2.052970086521269,2.0,0
1265,,"Ernio Bidea, 12 Pasus-enea",43.19111072669192,-2.0570630480853564,2.0,0
4838,,"Ernio Bidea, 25",43.1920384993432,-2.0614792274513425,2.0,0
1267,,Akezko Auzoa 2,43.19135699528048,-2.0640248529232843,2.0,0
1268,,Zizurkilgo Bidegurutzea,43.19148069543952,-2.07480366180584,2.0,0
1269,,Alkizako Bidegurutzea,43.19062302608996,-2.084600336769114,2.0,0
1271,,Asteasu Erdigunea,43.1933455,-2.096026,2.0,0
4213,,Larraul,43.18801483559302,-2.102040062076651,2.0,0
1096,,San Frantzisko Ibilbidea 1- Eliza,43.13658394083066,-2.0742669780278056,2.0,0
1097,,Renfe-jesuitinas,43.13464816152752,-2.077640510302915,2.0,0
1126,,"Araba Etorb, 5 - Eroski Zubia",43.13318261491122,-2.082396126599595,2.0,0
1104,,Benta Haundi,43.126208890299615,-2.0875161854919533,2.0,0
4195,,"Erbeta 2, Txintxarri",43.105735271735206,-2.094714800473307,2.0,0
915,,"Bidebitarte, 17",43.10090285616903,-2.098534024014335,2.0,0
4193,,"San Juan, 61 Tontokalea",43.10057484900252,-2.098047296126878,2.0,0
1127,,"Larraitz Auzoa, 40",43.09765421496594,-2.0953745362794804,2.0,0
1128,,"Joxean Tolosa, 3 - Ugarte",43.0684192681025,-2.0845050995182444,2.0,0
1129,,"Alegiko Bidea, 1 - Zubillaga",43.05649013093012,-2.08817003200419,2.0,0
4219,,"Bartolome Deunaren Bidea, 18",43.05043460292426,-2.088763167502974,2.0,0
1131,,Fernando Amezketarra Enparantza,43.04904782991807,-2.0876295459754526,2.0,0
834,,"Elizkale, 6 - Zumadi Eskola",43.04514691427034,-2.085145933725586,2.0,0
1132,,"Elizkale, 20",43.044664375546496,-2.083360612981469,2.0,0
835,,"Elizkale, 7 - Zumadi Eskola",43.04517382745555,-2.08513325631736,2.0,0
5266,,Ipintza-garmendia,43.04669893540196,-2.099168612488284,2.0,0
1133,,"San Juan Pza, Z/g",43.04735073062166,-2.105347125962663,2.0,0
836,,Larraitz Auzoa,43.03695468078322,-2.0990411091141405,2.0,0
853,,Asuncion Klinika,43.13962017120634,-2.0689214523378827,2.0,0
855,,Santa Klara,43.136535811488855,-2.071661014086388,2.0,0
1141,,"Ibarra Kalea, 2 - Tolosana",43.13413224943224,-2.071746555865607,2.0,0
1142,,"Euskal Herria, 18",43.13269600437454,-2.0678707847697417,2.0,0
1143,,"Euskal Herria, 44 - Kulturetxe",43.13242008604162,-2.06385454936316,2.0,0
1146,,"Euskal Herria, 62 - Ibarburu",43.13290668887968,-2.060601252507895,2.0,0
1216,,"Okobio 69, San JosÃ©",43.13535546914425,-2.0572562853982888,2.0,0
5265,,Leitzako Errepidea,43.14159927375372,-2.0457366957368133,2.0,0
1147,,"Beotibar, 8 - Gure Txokoa",43.14238873807183,-2.0410761976553955,2.0,0
857,,"J.m. Goikoetxea,12-telleri",43.14592754119175,-2.0293258790139608,2.0,0
1148,,"J.m. Goikoetxea, 28 - Herrigunea",43.14544025397967,-2.0260255671353407,2.0,0
1149,,"J. M Goikoetxea, 52 - Ermita",43.14447754731936,-2.02189666618717,2.0,0
1150,,"Eldua Auzoa, 5 - Maximene-papelera",43.14302929006183,-2.0157712587307657,2.0,0
859,,"Elduain Sakabanatua Barreiatua, 48",43.14403874869615,-2.007540535389863,2.0,0
1151,,"Elduain Hirigunea, 53 - Goikoetxea",43.14163033401741,-2.0029190428357366,2.0,0
1152,,"Elduain Hirigunea, 1",43.14093789806176,-1.9999299324796784,2.0,0
4201,,Aiztunalde,43.13362521882025,-1.9875449888796213,2.0,0
4202,,"Elduainalde, 5",43.1301802990106,-1.9849339313534464,2.0,0
1153,,Berastegi - Elduainalde,43.12682100893012,-1.9808219076134703,2.0,0
1154,,"Herriko Enparantza, 1",43.124113111386926,-1.97908435261593,2.0,0
1145,,"Euskal Herria, 32 - Txumitxa",43.13224350239045,-2.0664883399287355,2.0,0
2142,,Poligono Okobio,43.13435436008952,-2.05815692426597,2.0,0
1203,,Toki Alai,43.13650336582613,-2.053414687940672,2.0,0
1204,,Andresenea,43.13546949866067,-2.050356763925961,2.0,0
1205,,Leaburuko Benta-artetxe,43.12643528062833,-2.048972124563452,2.0,0
1206,,Leaburu Herrigunea,43.12446881184472,-2.0528995611638603,2.0,0
1207,,San Sebastian Ermita,43.120729771240974,-2.0548257075541185,2.0,0
922,,"Leaburu, 45 - Mahala",43.12189614931362,-2.045637344981293,2.0,0
1208,,Gazteluko Kontzejua,43.1161191436092,-2.024757650464524,2.0,0
1209,,Gazteluko Plaza,43.116538602370994,-2.0222066087084705,2.0,0
1281,,Larreta Baserriko Bidegurutzea,43.087936210463766,-2.108909296489381,2.0,0
1282,,Okaitz Garro Baserria,43.08554073488704,-2.107727756103983,2.0,0
1279,,Abaltzisketako Bidegurutzea,43.081805315460215,-2.1067746199339976,2.0,0
1237,,Herrigunea,43.07948142364229,-2.113638450712575,2.0,0
1284,,Zaragoza Baserriko Bidegurutzea,43.07580496466498,-2.106370440559331,2.0,0
1283,,Zubeltzu Baserria,43.06812243317671,-2.1061872931290986,2.0,0
2447,,Sasiain,43.0618335619793,-2.1057383089381547,2.0,0
2448,,Olano,43.057749780977154,-2.102850471808631,2.0,0
2449,,Pildain,43.05293088945078,-2.104983594223075,2.0,0
1429,,Pedro Mari OtaÃ±o Plaza,43.19926315715156,-2.0739968059711926,2.0,0
4214,,San Miguel Ermita,43.20025808779444,-2.067889051073127,2.0,0
1221,,Ibaiondo Poligonoa,43.19649182518384,-2.055527874725289,2.0,0
1241,,Kale Berria 10,43.18993262350163,-2.0528846966807706,2.0,0
4197,,Altzo MuÃ±o - Udaletxea,43.10019562869099,-2.084314392156713,2.0,0
1069,,Herrigunea-amalkor,43.20441186848871,-2.04960799463176,2.0,0
4211,,"Zubitxiki, 10",43.20588390327666,-2.043639591123557,2.0,0
4212,,Urtaki Industrialdea,43.202344063514325,-2.044593441625286,2.0,0
1064,,Uparan Industrialdea,43.19803160463088,-2.04900547485258,2.0,0
1258,,Kale Berria 11,43.18993160470164,-2.0527616482422384,2.0,0
1165,,"Euskal Herria, 17 - Anbulategia",43.13310007078886,-2.0688359539439465,2.0,0
887,,Izaskun - Jatetxeko Aparkalekua,43.13871947171978,-2.063377263259637,2.0,0
1259,,Kale Berria - Burni Zubi,43.1932525173285,-2.053633314621422,2.0,0
4207,,San Miguel Ermita,43.20034972696185,-2.0680845921973194,2.0,0
1192,,Santa Kruz Apaiza Enparantza,43.15480631754183,-2.085073674041655,2.0,0
2243,,Txingurri Ballara,43.15565536003856,-2.079784501993035,2.0,0
2245,,Olotza Ballara,43.15000130174182,-2.079893934130746,2.0,0
2244,,Anoetako Bidegurutzea,43.15236344847885,-2.0757875656296965,2.0,0
1236,,Belate 1,43.14081009701954,-2.072407915212162,2.0,0
1559,,Iurre Auzoa 1,43.13152939661087,-2.082851159386648,2.0,0
1272,,Alkizako Bidegurutzea,43.19066676367475,-2.08443969758888,2.0,0
1273,,Zizurkilgo Bidegurutzea,43.191343452932216,-2.0745349875065773,2.0,0
1274,,"Ernio Bidea, 37",43.191309863299125,-2.063767132550027,2.0,0
1266,,"Ernio Bidea,28, Hirubieta",43.19199410176622,-2.0604584404637225,2.0,0
1276,,"Ernio Bidea, 12 Pasus-enea",43.1909390521083,-2.056991851481623,2.0,0
4208,,"Elbarren 7,  Santa Kruz Ermita",43.20130394475566,-2.049446994059842,2.0,0
1286,,Intxausti Auzoa,43.10210462668029,-2.076470253547471,2.0,0
1291,,"Amategi Alde, 127",43.10478888180612,-2.0754590415596748,2.0,0
2834,,Ipintzaundi,43.105773779875335,-2.0837150847121007,2.0,0
1289,,Altzo Azpi,43.106208701760416,-2.0874323573388707,2.0,0
4860,,Larraitz Auzoa,43.03680655976709,-2.098527693658573,2.0,0
695,,Ipintza-garmendia,43.04672913521669,-2.099573336504473,2.0,0
1449,,"Bartolome Deunaren Bidea, 17",43.05046973811309,-2.0886521408125938,2.0,0
1135,,"Alegiko Bidea, 1 - Zubilaga",43.056524873996814,-2.0880098809663403,2.0,0
1136,,"Joxean Tolosa, 3 - Ugarte",43.06803151785554,-2.084437178653297,2.0,0
1137,,"Larraitz Auzoa, 9",43.0981083824823,-2.0958716586270785,2.0,0
1138,,"San Juan, 38 - Tontokalea",43.10061067016898,-2.098022193223275,2.0,0
2663,,"Bideberrieta, 17",43.10110364662284,-2.0977323176845584,2.0,0
1114,,Benta Haundi,43.12612726919188,-2.08744363703587,2.0,0
1139,,"Araba Etorb., 5 - Eroski Zubia",43.13306803220166,-2.082705215222877,2.0,0
1155,,Berastegi - Elduainalde,43.12673702172901,-1.9804913716334955,2.0,0
4249,,"Elduainalde, 5",43.13018690271655,-1.984663345027292,2.0,0
4250,,Aiztunalde,43.13362489245106,-1.9875081089532416,2.0,0
1156,,"Elduain Hirigunea, 1",43.14092824980794,-1.9998563103281608,2.0,0
1157,,"Elduain Hirigunea, 53 - Goikoetxea",43.14167331492894,-2.0026847066059563,2.0,0
858,,"Elduain Sakabanatua Barreiatua, 48",43.14411967278209,-2.007526928963828,2.0,0
1158,,"Eldua Auzoa, 5 - Maximene-papelera",43.14328994978076,-2.016763137707541,2.0,0
1159,,"J. M. Goikoetxea, 49 - Ermita",43.1445761648343,-2.021845904552768,2.0,0
1160,,"J.m Goikoetxea, 27 - Herrigunea",43.145530079264375,-2.025999545917849,2.0,0
4251,,"J. M. Goikoetxea,9-telleri",43.146084250715255,-2.0297538156216204,2.0,0
1161,,"Beotibar, 8 - Gure Txokoa",43.14249626489386,-2.041013032469147,2.0,0
856,,"Leitzako Errepidea, 21",43.14162813002232,-2.0459575878989384,2.0,0
1202,,Euskal Herria 85,43.13535708979508,-2.0574529879858328,2.0,0
1163,,"Euskal Herria, 51 - Ibarburu",43.1324844186491,-2.064013401657881,2.0,0
1166,,"Ibarralde Kalea, 3 - Tolosana",43.13439465041558,-2.071902425333972,2.0,0
4861,,Santa Klara,43.1366169436206,-2.071672082371926,2.0,0
1277,,Azaldegi Bailara,43.18179943088487,-2.086971659125608,2.0,0
1191,,Alkizako Plaza,43.172733055861634,-2.108833796592912,2.0,0
2996,,Arana Bailara,43.16637610840132,-2.0951114120978813,2.0,0
1194,,"San Juan Kalea, 6 Estankoa",43.16390945013811,-2.0726981323279423,2.0,0
1195,,"Apeadero 5, Renfeko Zubia",43.16197332722043,-2.0704640687353235,2.0,0
1196,,"Industrialdea, 11",43.15762460960577,-2.0683160076861955,2.0,0
1198,,"Hernialdeko Bidegurutzea, Zuloaga",43.15029077225992,-2.072252244052044,2.0,0
1188,,"San Juan, 2 Renfeko Zubia",43.16189279486927,-2.070526793717481,2.0,0
1189,,San Juan 6 Estanko,43.16393546379592,-2.0725747268039023,2.0,0
2997,,Arana Bailara,43.16645636252507,-2.095011813666936,2.0,0
1264,,Azaldegi Bailara,43.18290604656272,-2.085724665298551,2.0,0
1109,,Bidegoiango Plaza,43.14012687355098,-2.159981173948552,2.0,0
4230,,Goiatz Gunea,43.142376120358506,-2.1671071724874538,2.0,0
1110,,Toki Alai,43.13744770891781,-2.160558871971676,2.0,0
1111,,Zelai,43.13384724460831,-2.1595261463742523,2.0,0
1112,,Santutxu,43.12164622839715,-2.152256082453901,2.0,0
4231,,Gaiztarro,43.1256022263417,-2.1393792972013688,2.0,0
4232,,Eliza,43.12968200040011,-2.1370722280957333,2.0,0
4233,,Arkatzpe,43.12939900241156,-2.131801955780568,2.0,0
4238,,Urreta,43.125261605980434,-2.12063654343814,2.0,0
4235,,Otzarain,43.12408682527381,-2.092428135658689,2.0,0
1210,,Gazteluko Kontzejua,43.11617243132622,-2.024670762829482,2.0,0
1211,,San Sebastian Ermita,43.12081970549447,-2.0548120304839137,2.0,0
1212,,Leaburu Herrigunea,43.12455772820388,-2.0527629630146764,2.0,0
1213,,Leaburuko Benta-artetxe,43.12635332901336,-2.048862751294922,2.0,0
1214,,Andresenea,43.135723230420666,-2.050549565903079,2.0,0
1215,,Toki Alai,43.13650407780684,-2.0535007468351023,2.0,0
1162,,"Euskal Herria, 75",43.13295271606177,-2.06072349782936,2.0,0
1485,,"Euskal Herria 55, Kultur Etxe",43.13242486381181,-2.063338091451211,2.0,0
1164,,"Euskal Herria, 41 - Txumitxa",43.13243458361786,-2.0667313310907467,2.0,0
4215,,Santa Lutzia Auzoa,43.14520999336908,-2.0697712196756988,2.0,0
4236,,Otzarain,43.12420367796819,-2.092401821632906,2.0,0
4237,,Urreta,43.12511669587574,-2.120527978378892,2.0,0
4239,,Ugarte,43.128958565730855,-2.12835351486488,2.0,0
4241,,Eliza,43.12972711196133,-2.13708388821534,2.0,0
4242,,Gaiztarro,43.1255486659416,-2.139441515707877,2.0,0
1100,,Santutxu,43.1219546345716,-2.152559144055599,2.0,0
1102,,Zelai,43.13384724460831,-2.1595261463742523,2.0,0
1101,,Toki Alai,43.13732939636249,-2.160388348115507,2.0,0
1105,,Bidegoiango Plaza,43.14012615133384,-2.159882812264096,2.0,0
4209,,Elbarren Eliza,43.20336163974039,-2.048922679492542,2.0,0
4123,,Sorabilla,43.20992412621726,-2.034725258289435,1.0,0
395,,"Karrika Kalea, 1",43.209575733355045,-2.029732744931916,1.0,0
396,,"Aita Larramendi Kalea, 19 - Zumea Plaza",43.21275213508286,-2.0241793677740514,1.0,0
398,,Kaleberria 10 - Renfe,43.21645122413688,-2.0208085192151515,1.0,0
4199,,"Aldaba Auzoa, 7 Lantier",43.09600919730799,-2.118818922692016,2.0,0
916,,"San Lorentzo, 18 - Polikiroldegia",43.09380961905269,-2.125546967537293,2.0,0
1199,,"Bezunzibar Industrialdea, 1",43.0907698908479,-2.124877596648771,2.0,0
1217,,Ola Auzoa - Eredu,43.08525484887241,-2.129059454142373,5.0,0
1200,,Baliarrain,43.06931631304147,-2.127872713962123,2.0,0
1293,,San Juan Iturria,43.07005273192254,-2.1395060062619287,2.0,0
9219,,Renfe,43.13542406627092,-2.0789444649394584,2.0,0
960,,Zubizarreta Parkina,43.13175923518235,-2.0689423610750284,2.0,0
1834,,Apatta Biribilgunea,43.12571004347296,-2.0625677163259715,2.0,0
965,,Apatta Erreka,43.12294664100168,-2.064896408807979,2.0,0
1242,,Arroa Auzoa,43.18151392418939,-2.0540484511297805,2.0,0
1243,,Ibaiondo Bailara,43.17570677524381,-2.0574231528637097,2.0,0
1244,,Kale Nagusia 6,43.16770487490759,-2.067707629825166,2.0,0
971,,Kale Nagusia 26 - Etxezarreta,43.16462147568465,-2.0694521092191507,2.0,0
973,,Anoeta Sarrera - Gi-3650,43.16108097940836,-2.06924753515944,2.0,0
4399,,Rondilla Kalea 34- Gorosabel,43.139234031903634,-2.073489220056077,2.0,0
1201,,"Bezunzibar Industrialdea 1, Zubiaurre",43.09081425211373,-2.1247909590381875,2.0,0
935,,"San Lorentzo, 18 - Polikiroldegia",43.09378091739525,-2.1253262070517382,2.0,0
4217,,"Aldaba Auzoa, 7 Lantier",43.0959269331597,-2.1186603636959487,2.0,0
1248,,Larramendi Kalea11,43.14490004745357,-2.0715221482539232,2.0,0
1250,,Larramendi Kalea 1 - Arramele,43.14179151496113,-2.0712863683530065,2.0,0
847,,Bedaio,43.04997699578493,-2.040491288334572,2.0,0
1238,,Kaleberria 22 - Renfe,43.2159206593717,-2.020890879318238,1.0,0
397,,"Aita Larramendi Kalea, 36 - Zumea Plaza",43.21266577589648,-2.02461162925233,1.0,0
393,,"Karrika Kalea, 2",43.2092037489627,-2.030464948946779,1.0,0
1240,,"Elutxe Kale 1, Oskarbi",43.204340045523104,-2.049633728329201,2.0,0
1253,,Santa Lutzia,43.14721378589331,-2.068142111901347,2.0,0
5271,,Zaragoza Baserriko Bidegurutzea,43.07584021239302,-2.106271659775386,2.0,0
1280,,Abaltzisketako Bidegurutzea,43.08192284390466,-2.106834336335202,2.0,0
1469,,"Larraitz Auzunea, Zubia",43.099913895962274,-2.097590040433587,2.0,0
5267,,Anoetako Bidegurutzea,43.15243577516112,-2.07582337235681,2.0,0
1278,,Ubare Auzoa - Renfe,43.18948387667204,-2.055242144908857,2.0,0
1252,,Larramendi Kalea 8 - Arramele,43.14185304284166,-2.071100985361129,2.0,0
2859,,Apatta Biribilgunea 2,43.125403317070784,-2.0624986395391898,2.0,0
4323,,Vi-Estacion De Autobuses,42.859325154465495,-2.684342458405961,14.0,0
4324,,Durana,42.89069423219,-2.639934664110163,12.0,0
4325,,Carretera A-3002. Direccion Arrasate-Mondragon,42.90532916220015,-2.6291432233454,12.0,0
4326,,C/ Urrundia. Direccion Arrasate-Mondragon,42.91663942407901,-2.618134383143723,12.0,0
4327,,Carretera A-3002 Direccion Arrasate.Vitoria,42.93780187306134,-2.607622654664953,12.0,0
194,,Santiagolarra,42.95473361333976,-2.600453606053212,12.0,0
4328,,Carretera A-3002. Direccion Eskoriatza,42.95847286298277,-2.590866395973274,12.0,0
4321,,Marisa,42.977920009208844,-2.56542430059779,7.0,0
865,,Eduardo Gorosarri,43.01856331647536,-2.525572134543619,7.0,0
4889,,Almen,43.02491189137289,-2.512734278316703,7.0,0
4391,,Azbe,43.03298431515401,-2.503194048314535,7.0,0
4330,,Zalduspe Ospitalea,43.06302750978233,-2.481508752878303,7.0,0
4331,,Musakola/Zigarrola,43.06765580065986,-2.477502656626672,7.0,0
884,,San Prudentzio,43.08010542344418,-2.447864968126762,7.0,0
4312,,Ibargarai Geltokia,43.11340156972608,-2.416284768298978,7.0,0
4428,,Osintxu,43.15660227589835,-2.405000696928319,7.0,0
1552,,Zubi Nagusia,43.17409151377581,-2.414132223480943,8.0,0
4316,,Urkizu,43.18692870039944,-2.462962279672899,8.0,0
901,,Estacion,43.18401454364537,-2.475330047274177,8.0,0
4447,,Intxaurtxueta,43.020391292278056,-2.523398085333556,7.0,0
861,,Eduardo Gorosarri,43.0185552781232,-2.525805368572687,7.0,0
4320,,Aingeru Guarda,43.0150057329427,-2.53198070835415,7.0,0
2006,,Mazmela Dir Leintz,43.01371482479309,-2.542322908498981,7.0,0
9938,,Kuatruena Dir Eskoriatza,43.00953966292185,-2.54764246331229,7.0,0
2008,,Marulanda Dir Leintz,42.99503727647363,-2.567475056973666,7.0,0
4431,,Leintz Herria,42.98665270496576,-2.569619046617874,7.0,0
1438,,Gatzagain,42.977842833743615,-2.571225774288392,7.0,0
60,,Aeropuerto Bilbao,43.30558852872278,-2.905891033051479,90.0,0
610,,IÃ±urritza,43.28292851635308,-2.16089064291481,3.0,0
2862,,Donostiako Autobus Geltokia,43.31656267706511,-1.977532724198593,1.0,0
850,,Unzaga,43.18400408144223,-2.473053655635133,8.0,0
999,,Bidebarrieta,43.18563969308463,-2.464597923230986,8.0,0
1000,,Azitain,43.189816624484976,-2.454802383116163,8.0,0
4442,,Malzaga,43.1928025287743,-2.437312073904106,8.0,0
1455,,Sagar-Erreka,43.1778167755636,-2.420679276049063,8.0,0
6047,,Ezozia,43.17758301776863,-2.415439979135783,8.0,0
4459,,EstaziÃ±o,43.1749008664775,-2.412168234744497,8.0,0
4439,,Txurruken,43.170224676799165,-2.408140947005387,8.0,0
854,,Osintxu,43.15656836885525,-2.405406918902891,7.0,0
1458,,Toki Eder,43.14991942981224,-2.411706693694871,7.0,0
5367,,Mekolalde,43.14381007435992,-2.4144091851862965,7.0,0
4437,,Zubiberri,43.13113560787375,-2.422324959143701,7.0,0
4436,,Madina Amillaga,43.12291334374186,-2.422144175949986,7.0,0
4435,,Santa Marina 4,43.1195590990025,-2.415943510883,7.0,0
4873,,Ozaeta,43.10744868424253,-2.419684204244464,7.0,0
4874,,Ola,43.09446962238562,-2.433433452798348,7.0,0
4444,,Garratz,43.07560427974472,-2.467129197265558,7.0,0
4445,,Eroski,43.0718519579077,-2.471595813137461,7.0,0
4318,,Musakola/Zigarrola,43.06784472723946,-2.47746420577214,7.0,0
5528,,Erdigunea - Centro,43.064260453798646,-2.489358410937148,7.0,0
4446,,San Andres,43.060772542756425,-2.492727690209366,7.0,0
6101,,Renfe Geltokia,43.08705439152696,-2.320213852506729,5.0,0
923,,Deskarga,43.0880387872613,-2.350156364966349,7.0,0
4393,,Sagasti Auzoa,43.09673179149669,-2.379972940673882,7.0,0
2476,,"Ibargarai, 37",43.113174516696056,-2.415905902370223,7.0,0
6900,,Pagatza,43.1377974101253,-2.492202073320625,7.0,0
926,,Enparantza,43.136506404591394,-2.487417403452671,7.0,0
928,,Ubera,43.13435337257817,-2.459820045488959,7.0,0
498,,San Juan,43.13265518298312,-2.445535906967163,7.0,0
4639,,Instituto,43.12098361897653,-2.421609168238821,7.0,0
930,,Deskarga,43.088011076675286,-2.350033797411024,7.0,0
4448,,Intxaurtxueta,43.02037287408632,-2.523300047159665,7.0,0
878,,Araba Ibilbidea 31 / Portasol,43.028819454587016,-2.50629620520767,7.0,0
5182,,Nafarroa Kalea,43.0316567022293,-2.506457585778107,7.0,0
5180,,Lausitta,43.0370836730014,-2.505763470070646,7.0,0
895,,Ulgor,43.054015613469005,-2.49402359488436,7.0,0
4449,,San Andres,43.06083437669857,-2.49245700626925,7.0,0
5529,,Kontzezino,43.06357503634172,-2.491144872501664,7.0,0
4450,,Eroski,43.071153686768426,-2.472486166486653,7.0,0
4451,,Kataide,43.07441168037685,-2.466279696210551,7.0,0
4443,,Ola,43.09401088424929,-2.433535979971226,7.0,0
898,,Ozaeta,43.1068867643414,-2.420746438600172,7.0,0
188,,"Ibargarai, 9",43.11605427603602,-2.415558928990036,7.0,0
4452,,Santa Marina Azoka,43.11858600276421,-2.4158298449779,7.0,0
3237,,Madina/Itv,43.122779023439605,-2.422292956398578,7.0,0
3682,,Zubiberri,43.13087342687626,-2.422118417884653,7.0,0
4438,,Mekolalde,43.14302971958965,-2.415006893162031,7.0,0
1467,,Toki Eder,43.14983750585806,-2.411535301308489,7.0,0
5276,,Rekalde 25,43.17141908683218,-2.409261267777637,8.0,0
1554,,Baltegieta,43.17704276289936,-2.415445132888231,8.0,0
4440,,Maltzaga,43.19295584326149,-2.437359893703086,8.0,0
993,,Azitain,43.18986416640584,-2.45533113853178,8.0,0
4441,,Errebal,43.18574552234806,-2.467981052817759,8.0,0
4314,,Bilboko Autobus Geltokia,43.2601879966391,-2.949181895179592,13.0,0
942,,Zumarragako Ospitalea,43.08336623932049,-2.31331354353241,5.0,0
4374,,Izazpe,43.0848478592771,-2.317130042759563,5.0,0
3414,,Eizaga,43.08664308705374,-2.310168640061238,5.0,0
4375,,Correos,43.088928409134105,-2.312845963031037,5.0,0
6049,,Labeaga 14,43.09143818628135,-2.315422690614592,5.0,0
4376,,IpiÃ±arrieta/Berriki,43.08841621825666,-2.320567375899165,5.0,0
946,,Poblado Aparicio,43.07890383618036,-2.326102121920073,5.0,0
4377,,Mendiazpe,43.07689504946825,-2.327512208644144,5.0,0
4378,,Iturgorri,43.072526109822114,-2.330311363227831,5.0,0
955,,Zurrategi,43.069082316863046,-2.332719335780151,5.0,0
957,,Bereziartua,43.06074864430686,-2.333546558610783,5.0,0
958,,Urola Industrialdea,43.05488331935796,-2.331461179809591,5.0,0
4633,,Saturnino Telleria,43.05215573412726,-2.33161359724886,5.0,0
4638,,Aitzgorri Kalea,43.04819813866122,-2.335487338077856,5.0,0
507,,Patrizio Etxeberria Kalea,43.052191342972,-2.333086677835301,5.0,0
1963,,Santikrutz,43.055590255714925,-2.333786618741876,5.0,0
959,,Laubide,43.056980902101664,-2.336006496093461,5.0,0
1962,,San Ignazio,43.054896916529934,-2.335341333290677,5.0,0
962,,Urola Industrialdea,43.05512564621465,-2.331323473043826,5.0,0
963,,Zaldu,43.0607387817318,-2.333399298237682,5.0,0
964,,Zurrategi,43.06909975244792,-2.332620888479665,5.0,0
510,,Iturgorri,43.07248259764826,-2.330569778855064,5.0,0
945,,Poblado Aparicio,43.07877878931132,-2.326275471207172,5.0,0
4380,,Elizalde,43.08916576340479,-2.313383905690658,5.0,0
7738,,San Gregorio 4,43.08672915794123,-2.3110031077407696,5.0,0
531,,Izazpi,43.08477743799477,-2.317401103761375,5.0,0
3820,,Argixao 6,43.08369294447923,-2.315238667881899,5.0,0
2446,,Unzaga Lateral,43.18447553470608,-2.473751008203168,8.0,0
1437,,Azbe,43.03330832109051,-2.503154609265128,7.0,0
4888,,"Ederlan, Gi-627 Pk 29.6",43.02504732658501,-2.51281912168734,7.0,0
4329,,Marisa,42.97437275171311,-2.575210972492723,7.0,0
4386,,Landa,42.95889587096268,-2.590802291492767,12.0,0
195,,Santiagolarra,42.95474330267656,-2.600649695983614,12.0,0
4387,,Carretera A-3002 Direccion Vitoria-Gasteiz,42.93937965572696,-2.605553545685347,12.0,0
4388,,C/ Urrundia. Direccion Vitoria-Gasteiz,42.91673909116678,-2.618317547765074,12.0,0
4389,,Mendibil,42.90549148949506,-2.629215748941466,12.0,0
4390,,Durana,42.89036135560204,-2.640034574705166,12.0,0
4392,,Posta Geltokia,43.03424783644367,-2.41606579830931,7.0,0
4544,,Zubillaga,43.061410951616736,-2.4403695683104143,7.0,0
4333,,Aingeru Guarda,43.01417195791067,-2.532882848317687,7.0,0
4693,,Mugarrieta Dir Arrasate,43.048012789091,-2.498898226418842,7.0,0
1124,,"San Juan Kalea, 07",43.185243672436094,-2.472390798924406,8.0,0
1408,,Unibertsitatea,43.18016462742822,-2.488159730332897,8.0,0
6027,,"Baldespina Markesa, 14",43.18623101977708,-2.503885023136768,8.0,0
4455,,Hormigones/OxiÃ±urdin,43.06877140551423,-2.446640234124843,7.0,0
874,,Zubillaga,43.06152050619569,-2.440675591173458,7.0,0
4454,,Magdalena,43.0523260971777,-2.431451719896789,7.0,0
5677,,Goribar Auzoa 7,43.04368077635445,-2.422335932549076,7.0,0
7158,,Aita Lizarralde,43.03083138034725,-2.408352886111506,7.0,0
4457,,San Lorentzo/Olakua,43.03221327520422,-2.40394518943134,7.0,0
9,,Olabarrieta,43.02778974401367,-2.389872849098515,7.0,0
1430,,BikuÃ±a Industrialdea,43.03876000993911,-2.336865927865162,5.0,0
881,,Ulgor,43.05383687907397,-2.494332045501015,7.0,0
4692,,Mugarrieta Dir Aretxabaleta,43.04828018286578,-2.49826986459725,7.0,0
5179,,Kuartela,43.03864341092903,-2.504118214331868,7.0,0
5181,,Errekabarren 8/Osasun Zentroa,43.035566388920415,-2.504732220667153,7.0,0
875,,Portasol,43.02913493382229,-2.506367322602349,7.0,0
4315,,Txankakoa,43.21557279753003,-2.417034768198218,8.0,0
1439,,Gatzagain,42.977698251848,-2.571091873842116,7.0,0
4432,,Leintz Herria,42.987315039859965,-2.568547283225797,7.0,0
2007,,Marulanda Dir Eskoriatza,42.99485676424935,-2.567365915403772,7.0,0
1624,,Marin,43.00199535344331,-2.586209976717043,7.0,0
2005,,Mazmela Dir Eskoriatza,43.01366060037704,-2.542274226189986,7.0,0
5274,,BikuÃ±a Industrialdea,43.038715201667074,-2.336903239043638,5.0,0
8,,Olabarrieta,43.02801662124219,-2.390202002191199,7.0,0
4434,,San Lorentzo/Olakua 2,43.03201683879786,-2.404266237429581,7.0,0
4453,,Kale Goiena,43.03151375207723,-2.407965813076815,7.0,0
5669,,Goribar Auzoa 7 Parean,43.04375151047232,-2.422077447130337,7.0,0
5414,,Magdalena,43.052325487105215,-2.431328936163992,7.0,0
4347,,San Pio X,43.13050245147823,-2.545473361154587,11.0,0
5183,,Estacion De Autobuses,43.131630697270936,-2.584046115976922,11.0,0
4349,,Erdigunea,43.150454196924,-2.610643311735501,11.0,0
4350,,Magdalena,43.17177913006339,-2.632960599359712,11.0,0
1970,,San Juan,43.12907813832317,-2.4340607718513634,7.0,0
927,,Ubera,43.1344342959419,-2.459794742488375,7.0,0
4351,,Magdalena,43.171626092331685,-2.632973818655836,11.0,0
4352,,Erdialde,43.14993101189364,-2.610376066210569,11.0,0
4348,,Atxondoko Autobus Geltokia,43.13162401503631,-2.584685491359466,11.0,0
4353,,San Pio X,43.13062885641289,-2.545558487337819,11.0,0
4417,,Urazandi,43.21630284227775,-2.413642071372231,8.0,0
212,,Kale Nagusia 40 - Zumaburu,43.26609129141407,-2.019532588338717,1.0,0
4397,,Bazkardo - Gasteizerantz,43.22060024473242,-2.024780643717868,1.0,0
4398,,Kale Nagusia 72 - Kiroldegia,43.18520590428938,-2.052970086521269,2.0,0
4399,,Rondilla Kalea 34- Gorosabel,43.139234031903634,-2.073489220056077,2.0,0
915,,"Bidebitarte, 17",43.10090285616903,-2.098534024014335,2.0,0
916,,"San Lorentzo, 18 - Polikiroldegia",43.09380961905269,-2.125546967537293,2.0,0
1220,,Legorreta,43.085885567675554,-2.150673147786494,5.0,0
1222,,Itsasondoko Plaza,43.06755790690276,-2.164964494279978,5.0,0
4400,,Erdigunea,43.05409823210493,-2.180262897312109,5.0,0
4401,,Tren Geltokia,43.046348349383855,-2.202392302284432,5.0,0
4402,,"Zumarralde,2",43.04378557992242,-2.256420622127011,5.0,0
4403,,Santa Luzia,43.06260908125267,-2.273767215054298,5.0,0
4404,,Marmoles IpiÃ±arrieta,43.07716890360591,-2.292291338377001,5.0,0
1553,,"Bizkaia Etorbidea, 11",43.18572447959832,-2.503359982275987,8.0,0
6029,,Unibertsitatea,43.178994395446935,-2.490261236606443,8.0,0
4394,,Marquesina. Direccion Beasain,43.0755189607697,-2.290504645576241,5.0,0
4395,,Santa Luzia,43.06785149403272,-2.282585218066442,5.0,0
4396,,San Andres,43.04263462745056,-2.252530445525272,5.0,0
934,,Geltokia,43.05283849267279,-2.179137730268022,5.0,0
1230,,Itsasondoko Plaza,43.06743140375456,-2.164904802059231,5.0,0
1233,,Legorreta,43.08579425231713,-2.150502411467671,5.0,0
2662,,"San Lorentzo, 12",43.09459274527234,-2.124331666447625,2.0,0
2663,,"Bideberrieta, 17",43.10110364662284,-2.097732317684558,2.0,0
937,,Ibaiondo Kalea 1,43.13687575320986,-2.071385364053656,2.0,0
913,,Kale Berria 66 - Eliza,43.18621983262668,-2.052536018000484,2.0,0
400,,Bazkardo - Donostiarantz,43.22193588743995,-2.025128738424494,1.0,0
215,,Kale Nagusia 41 - Zumaburu,43.26627993735028,-2.019480273161232,1.0,0
75,,Bizkaia,43.283903953087865,-2.176160699723765,3.0,0
667,,Urkidi,43.283663937142926,-2.179097366789413,3.0,0
645,,Sarakatua,43.28421594955308,-2.1795496366458527,3.0,0
652,,Allemendi,43.28498615671433,-2.1814091238406528,3.0,0
658,,Barandiaran,43.283855999835815,-2.180740959376944,3.0,0
660,,Nafarroa,43.286664477799306,-2.174934274289196,3.0,0
4908,,Antoniano,43.28558518346053,-2.173303095689421,3.0,0
664,,Geltokia,43.28438968749247,-2.1708778547396665,3.0,0
659,,Eguneko Zentroa,43.28499161026096,-2.1656017717337286,3.0,0
662,,IÃ±urritza (Ikastola),43.28461766250189,-2.1603867295812567,3.0,0
699,,Talaimendi N-634,43.284148982587965,-2.1563470652047005,3.0,0
661,,MÂª Etxetxiki,43.282952955098565,-2.160938364564988,3.0,0
693,,MÂª Etxetxiki Buztinzuri (Orokieta),43.28096543432215,-2.1616895142839265,3.0,0
663,,Itxasmendi,43.280931240614585,-2.159922271310533,3.0,0
813,,Araba - Hegoalde,43.28081771988573,-2.1652395891014717,3.0,0
665,,Kiroldegia,43.280978752057976,-2.168866926059948,3.0,0
657,,Azken Portu,43.28197703272667,-2.174784605386015,3.0,0
666,,Urdaneta - Lanpardo,43.27964331752892,-2.1747022761470647,3.0,0
3216,,La Salle Ikastetxea,43.27881468813209,-2.1759212626892097,3.0,0
4468,,Lanpardo - Izeta Plaza,43.281012948766495,-2.176034590916289,3.0,0
655,,Anbulategia,43.28202316900105,-2.1781405227514,3.0,0
672,,Bixkonde,43.286824142513694,-2.1752144578824417,3.0,0
673,,Bizkaia 2,43.28363695461558,-2.1757009535196,3.0,0
678,,Pontalier,43.28471066904332,-2.160040953519607,3.0,0
422,,Nafarroa-IÃ±urritza,43.28586000055199,-2.162761364564974,3.0,0
414,,Nafarroa Kalea- Gurutze Gorria,43.28606865179965,-2.169192052616575,3.0,0
676,,Hiruerreketa,43.2831166444437,-2.18462013301689,3.0,0
677,,Hiruerreketa Parkina,43.281942637228205,-2.189609128130588,3.0,0
1359,,"Santa Fe,47 (zaldibia)",43.036570227385205,-2.1500155915502805,5.0,0
1361,,"Elbarren Auzoa,11 (zaldibia)",43.04127875979348,-2.151092322175676,5.0,0
2479,,Zelaa Hotela,43.04701853451062,-2.1540212379776844,5.0,0
5215,,Elbarrena Auzoa,43.04914690368314,-2.1605731289532035,5.0,0
4164,,"Txindoki Kalea, 2 Parean",43.05472066601974,-2.167938400163992,5.0,0
4148,,"Euskal Pilota, 5",43.05391973539016,-2.17173122493952,5.0,0
4149,,Bizkaia Pasealekua,43.05392762061677,-2.175316648024064,5.0,0
1227,,Arana Kalea,43.055247249952544,-2.177251400103895,5.0,0
4400,,Erdigunea,43.05409823210493,-2.180262897312109,5.0,0
1345,,"Urdaneta, 46",43.05384499689875,-2.1838886329333507,5.0,0
1972,,Malkasko,43.05469756969797,-2.1872787109752663,5.0,0
1362,,Ezkiaga 18 Parean,43.0517989877866,-2.189956927396112,5.0,0
1346,,"Esteban Lasa, 7",43.04784008822414,-2.1955218488904538,5.0,0
1347,,"San Inazio Kalea, 14",43.04715698657756,-2.198268739991132,5.0,0
1285,,"Oriamendi,32",43.04734409750559,-2.203140630006342,5.0,0
1349,,Igartza Oleta 2,43.04779516678592,-2.2097526289516534,5.0,0
1350,,"Loinazpe Bhi , Igartza Oleta,14",43.04644485846203,-2.2137356687645062,5.0,0
4150,,"Carretera N-1 Madrid Irun,7 (olaberria)",43.042357773631714,-2.2165256174955084,5.0,0
2488,,Yurre Gasolindegia,43.03881276677841,-2.216951287952087,5.0,0
5217,,Aristrain,43.03579410515637,-2.2179717216830848,5.0,0
4154,,"Diseminado Rural, Cerca De  NÂº45",43.0239817741781,-2.2248965159982426,5.0,0
4155,,"Diseminado Rural,22 (idiazabal)",43.02208216198064,-2.2302959323574947,5.0,0
4157,,"Kale Nagusia,6 (idiazabal)",43.01498157232988,-2.2322744282464124,5.0,0
1365,,Idiazabal Erdigunea,43.01174101750633,-2.2337995632933367,5.0,0
4256,,"Kale Nagusia,6 Parean",43.01488178566677,-2.23216522842063,5.0,0
6074,,Poyam,43.02156091168908,-2.230449717459392,5.0,0
6077,,Ampo,43.023125527533104,-2.232798878636667,5.0,0
5216,,Gi-2637,43.02197845754127,-2.2376732119082305,5.0,0
4184,,Poligono Goardia,43.01741415001257,-2.247375428617947,5.0,0
1387,,"Segura Barreiatua,28 (segura)",43.01401260684949,-2.250472516334313,5.0,0
1388,,"Kale Nagusia,7 (segura)",43.01080942198151,-2.2522416292814698,5.0,0
1389,,"Kale Nagusia,31 (segura)",43.008423190776256,-2.253632564462691,5.0,0
1390,,"Segura Barreiatua,66",43.00520432520288,-2.2613277145524378,5.0,0
5218,,Barreiatua,43.00205389066176,-2.2671318390322366,5.0,0
4186,,"Segura Barreiatua, 83",42.99552203096216,-2.2722637159822816,5.0,0
502,,"Gi-2637 Barrenaldea Auzoa 6, Parean",42.9889252692475,-2.2771376651170145,5.0,0
4188,,"Ondaraldea,17",42.98534464214063,-2.2833982663276244,5.0,0
4190,,"Ondaraldea,4 (zegama)",42.98343474495387,-2.2875906155114167,5.0,0
1382,,Farmazi (zegama),42.97906954220391,-2.289394814300202,5.0,0
4827,,Elizalde Kalea,42.97620628449362,-2.29089943645885,5.0,0
7615,,Olaberri,42.97239785087034,-2.292463805579553,5.0,0
4192,,"Juan Telleria,6",42.9759538589725,-2.2908532821696945,5.0,0
4826,,Hermanos Aseginolaza Kalea,42.97825679106084,-2.28902398492458,5.0,0
4191,,"Ondaraldea,4 (zegama)",42.98363108398899,-2.287306248024472,5.0,0
4189,,"Ondaraldea,17 (zegama)",42.98488749489545,-2.283734744432261,5.0,0
200,,Gi-2637 Barrenaldea Auzoa 6,42.9889157226607,-2.2770519130389992,5.0,0
4187,,"Segura Barreiatua,83",42.99546714725624,-2.272129420253678,5.0,0
1971,,Barreiatua,43.00213390760881,-2.266971392103715,5.0,0
1383,,Zeraingo Bidegurutzea,43.00510535775669,-2.261341169889989,5.0,0
1384,,"Kale Nagusia,31 (segura)",43.00837800965666,-2.253608571236957,5.0,0
1385,,"Kale Nagusia,7 (segura)",43.01088997886439,-2.2521670280852666,5.0,0
1386,,"Segura Barreiatua,28 (segura)",43.013840803701854,-2.2503641646897057,5.0,0
4185,,Poligono Goardia,43.01700968761287,-2.2474908153477675,5.0,0
5213,,Gi-2637,43.02187941173993,-2.2376744374175,5.0,0
4182,,Diseminado Rural (idiazabal),43.023131819399104,-2.227042725374485,5.0,0
4158,,"Diseminado Rural, Cerca De  NÂº45 (idiazabal)",43.02420197124616,-2.224169621294504,5.0,0
1367,,"Sector 201 , 16 (olaberria)",43.02873283780295,-2.2190801357244645,5.0,0
4159,,"Cari De La Cruz,23 (olaberria)",43.03519832452444,-2.217758328781307,5.0,0
1368,,"Cari De La Cruz,2 (olaberria)",43.03794610555856,-2.2166308562719603,5.0,0
4160,,"Carretera N-1 Madrid Irun,7 (olaberria)",43.0414391045903,-2.216500477629353,5.0,0
2000,,Antzizar Kiroldegia,43.04622321379485,-2.214241884675849,5.0,0
1370,,Igartza,43.04682891298619,-2.210661312932665,5.0,0
4401,,Tren Geltokia,43.046348349383855,-2.2023923022844323,5.0,0
1341,,Bernedo,43.04600521079793,-2.197105087797228,5.0,0
4161,,Zaldizurreta,43.0465078586062,-2.1943114862073947,5.0,0
1342,,"Joan Xxiii, 12",43.05181577896065,-2.189784803314617,5.0,0
1973,,Malkasko 2,43.05466146648433,-2.1872669084092857,5.0,0
1343,,Kale Berri,43.05282831270162,-2.18274788964874,5.0,0
934,,Geltokia,43.05283849267279,-2.179137730268022,5.0,0
4162,,Joseba Rezola Pasealekua,43.05340125040745,-2.1759990523000146,5.0,0
4163,,"Euskal Pilota, 5",43.05403527604338,-2.171520922985196,5.0,0
4147,,"Txindoki Kalea, 2",43.05470283665001,-2.1679631999561635,5.0,0
5214,,Carretera Zaldibia,43.048909107545576,-2.160072965518601,5.0,0
1372,,"Elbarren Auzoa,11 (zaldibia)",43.041115231714265,-2.150898150512592,5.0,0
1373,,"Santa Fe,18",43.03818831246891,-2.1508525803946386,5.0,0
4402,,"Zumarralde,2",43.04378557992242,-2.2564206221270107,5.0,0
4307,,Alegi Auzoa,43.05300355720828,-2.2629153850520525,5.0,0
1394,,Gabiria Erdigunea,43.05049797823676,-2.2795337055654903,5.0,0
5415,,Arama,43.062459797036354,-2.164775793824833,5.0,0
4269,,Altzaga,43.06427350555808,-2.154250682768902,5.0,0
1378,,Gaintza Erdigunea,43.05341829108282,-2.133206147257624,5.0,0
4886,,Mendizabal Baserria,43.051495928974816,-2.130261772469792,5.0,0
4887,,Otegi Enea Baserria,43.04609903841266,-2.125144587138974,5.0,0
4545,,Zerain,43.01219652080371,-2.2718459842240515,5.0,0
1391,,Mutiloa Erdigunea,43.0214532716921,-2.2717979588920145,5.0,0
1501,,Altzagarate,43.07022991964431,-2.1523878260361453,5.0,0
1653,,Murkondo,43.06278614824341,-2.147970990741725,5.0,0
5413,,Altzaga,43.06432761979378,-2.154262220098162,5.0,0
1380,,Arama,43.06253075292166,-2.1646274594401578,5.0,0
4180,,Altamira,43.05239461223519,-2.1737654905037544,5.0,0
4151,,"Cari De La Cruz,12 (olaberria)",43.03664943187653,-2.216635076096688,5.0,0
4152,,Sector 201 (olaberria),43.03404806427334,-2.218104371222019,5.0,0
4153,,"Sector 201 , 16 (olaberria)",43.02892192418545,-2.219077738473314,5.0,0
1334,,San Gregorio,42.97839583844469,-2.1805211924234897,5.0,0
5236,,Barandiaran,42.9826476196897,-2.180722285324546,5.0,0
5235,,Matasoro,42.98902789868536,-2.1826492158690574,5.0,0
5234,,Rafaelenea,42.99548429168774,-2.180110134488163,5.0,0
1335,,Arrondoa,42.99882809333383,-2.1792682390276714,5.0,0
5244,,Eskola,43.00155326563396,-2.1775511413116195,5.0,0
1336,,San Martin,43.00696850553856,-2.176754973056249,5.0,0
5250,,Otadi,43.01283048930796,-2.1754741145615566,5.0,0
5663,,Zubikoeta,43.01557734611402,-2.176774963500361,5.0,0
5662,,Amebi,43.02062030557372,-2.178057569795508,5.0,0
5239,,Zubierreka Poligonoa,43.023594832999024,-2.1809757178586997,5.0,0
1337,,Hirigoien,43.029415875405846,-2.1840405462612718,5.0,0
1338,,"Hirigoien Kalea, 14",43.03200143398394,-2.1854669982478594,5.0,0
1339,,Lazkaoko Eliza,43.03526770434837,-2.1863812854595195,5.0,0
1340,,Hiribarren,43.0369446969316,-2.187942709549027,5.0,0
6071,,Senpere Auzoa 4,43.04384889675072,-2.1913997565144383,5.0,0
1231,,Itsasondoko Anbulatorioa,43.06914155685291,-2.1635673836544926,5.0,0
5518,,Berostegi,43.077586074868414,-2.1596076542791,5.0,0
1233,,Legorreta,43.08579425231713,-2.1505024114676705,5.0,0
4710,,Sagardotegia,43.08533558652245,-2.145741984723444,5.0,0
5412,,Geltokia,43.08493922495669,-2.1421110152155123,5.0,0
5237,,Legorreta 2,43.08501042683035,-2.141999452876903,5.0,0
5238,,Sagardotegia,43.08538814216252,-2.1455446865986127,5.0,0
1220,,Legorreta,43.085885567675554,-2.150673147786493,5.0,0
1974,,Berostegi,43.07760435329405,-2.1596442562694045,5.0,0
1222,,Itsasondoko Plaza,43.06755790690276,-2.164964494279978,5.0,0
1351,,"Hiribarren, 14",43.03700859610423,-2.188064625263247,5.0,0
1352,,Erdigunea,43.03529497823469,-2.1864177516051457,5.0,0
5257,,Hirigoien Kalea,43.03182152799906,-2.185493927154384,5.0,0
9010,,"Hirigoien, 2",43.02938982579813,-2.1841759088481543,5.0,0
5240,,Amebi,43.0205851707075,-2.1781807641300666,5.0,0
5241,,Zubikoeta,43.01594094907539,-2.177248700026926,5.0,0
1355,,San Martin,43.00693310704983,-2.176841334708417,5.0,0
1356,,Arrondoa,42.99887364149126,-2.1793412422,5.0,0
5664,,Rafaelenea,42.99553928269959,-2.1802443467119947,5.0,0
1357,,San Gregorio,42.978333950994426,-2.180681448340914,5.0,0
5255,,Bastarrika,42.97331716800223,-2.1805395787921014,5.0,0
1358,,Ergoiena,42.96534985386976,-2.175814286329644,5.0,0
1977,,San Juan,43.059642228428245,-2.172341895852405,5.0,0
5222,,Gi-3352,43.063345391960496,-2.256614096587374,5.0,0
2004,,Itsaso Erdigunea,43.07247279640968,-2.257461850392086,5.0,0
1976,,Aia Auzoa,42.96639514256928,-2.154918520656925,5.0,0
1332,,Kaxeta,42.95831178126095,-2.1565616788251742,5.0,0
1975,,Atxurrena,42.9630578306342,-2.1689296143815566,5.0,0
5247,,Sarriarte,42.96434118695912,-2.173301909586034,5.0,0
1333,,Ergoiena,42.96534994215357,-2.1758265467248563,5.0,0
5248,,Bastarrika,42.97352487718213,-2.1806226632233505,5.0,0
4708,,Otegi Enea Baserria,43.04614302532129,-2.12500890789758,5.0,0
4707,,Mendizabal Baserria,43.051567959984496,-2.130260754565118,5.0,0
5221,,Bajada De Gabiria Hacia Pavimentos Arrondo,43.05078549090408,-2.289512845931714,5.0,0
5220,,Arrondoko Kruzea,43.05118131764421,-2.2923569316641466,5.0,0
5219,,Baztarrika,43.0482036032063,-2.2855768244172863,5.0,0
3683,,Ugarana,43.04666876499075,-2.2834951364470686,5.0,0
6101,,Renfe Geltokia,43.08705439152696,-2.3202138525067286,5.0,0
4380,,Elizalde,43.08916576340479,-2.3133839056906584,5.0,0
7738,,San Gregorio 4,43.08672915794123,-2.3110031077407696,5.0,0
531,,Izazpi,43.08477743799477,-2.317401103761375,5.0,0
3820,,Argixao 6,43.08369294447923,-2.3152386678818986,5.0,0
942,,Zumarragako Ospitalea,43.08336623932049,-2.3133135435324097,5.0,0
4374,,Izazpe,43.0848478592771,-2.3171300427595627,5.0,0
4394,,Marquesina. Direccion Beasain,43.0755189607697,-2.290504645576241,5.0,0
1500,,Ezkio Itsaso Udaletxea,43.06784241285517,-2.2825730419702204,5.0,0
4816,,Errekabarrena 1,43.06558592745478,-2.277441103655122,5.0,0
4395,,Santa Luzia,43.06208559209384,-2.273576900566185,5.0,0
3245,,Santa Luzia 2,43.05998539507422,-2.270421062641573,5.0,0
4308,,Alegi Auzoa,43.052110958263725,-2.262741892018797,5.0,0
4396,,San Andres,43.04263462745056,-2.252530445525272,5.0,0
4711,,Aranberri Auzoa,43.04246556438034,-2.245976612868479,5.0,0
1377,,Salbatore Auzoa,43.04980188249727,-2.228021675199161,5.0,0
5254,,Sarriarte,42.96428592242188,-2.1731309905656864,5.0,0
5666,,Atxurrenea,42.96302234829438,-2.16900365867688,5.0,0
1398,,Kaxeta Ataun,42.95821273632472,-2.156563031707371,5.0,0
4709,,Mutiloa Erdigunea,43.02145358402062,-2.271847046219758,5.0,0
1392,,Zerain,43.012233708646725,-2.272029608648458,5.0,0
1531,,Senpere Auzoa 5,43.04451241842246,-2.190998166672768,5.0,0
1891,,Lazkaibar Kalea S/n,43.04962671568679,-2.1883893301138264,5.0,0
1374,,"Gudugarreta ,4",43.04898318479258,-2.2308068242183703,5.0,0
4712,,Aranberri Auzoa,43.04256501442443,-2.2460367796690632,5.0,0
3244,,Santa Luzia 2,43.06004787621917,-2.2703343586203504,5.0,0
4403,,Santa Luzia,43.06260908125267,-2.2737672150542982,5.0,0
3236,,"Errekabarrena 1, Parean",43.06579348873868,-2.2775123553012184,5.0,0
5365,,Ezkio Itsaso Udaletxea,43.06779369464503,-2.281984074202716,5.0,0
4404,,Marmoles IpiÃ±arrieta,43.07716890360591,-2.2922913383770007,5.0,0
3414,,Eizaga,43.08664308705374,-2.310168640061238,5.0,0
4375,,"Elizkale Kalea, 13",43.088928409134105,-2.3128459630310374,5.0,0
5416,,Murkondo,43.06274158588268,-2.1480330127090306,5.0,0
5410,,Igartubeiti Museoa,43.07444007305521,-2.28498959509679,5.0,0
5223,,Ezkio Baserriak,43.07826463077773,-2.283151647132687,5.0,0
2003,,Ezkio Erdigunea,43.08090758807974,-2.2752955315753742,5.0,0
5411,,Ezkio Baserriak,43.07831865578184,-2.283151017310048,5.0,0
5258,,"Hirigoien Kalea, 3",43.03317658671927,-2.1861020349211504,5.0,0
3249,,Errekalde Auzoa,43.028911259576,-2.190331633417685,5.0,0
1393,,"Zebazelai,9 (olaberria)",43.02630257549443,-2.204848894928827,5.0,0
5232,,Txakolindegi,43.03055828658706,-2.210833037936041,5.0,0
5230,,Igerilekua,43.038068380368586,-2.216076878219211,5.0,0
5231,,Txakolindegi,43.03051385854018,-2.210919529016221,5.0,0
2489,,Errekalde Auzoa,43.02887480919901,-2.1902707414682445,5.0,0
3163,,Fp Goierri,43.04730082078866,-2.182956336478206,5.0,0
1363,,Iurre,43.03866179658513,-2.2172601121843307,5.0,0
5759,,Xenpelar,43.31295784903798,-1.900523189610302,1.0,0
5691,,Aiako Harria,43.31270118025607,-1.905682231971669,1.0,0
5732,,Niessen,43.31473732920481,-1.900170484373899,1.0,0
34,,Gamon Zumardia,43.3125788151596,-1.8966950482658065,1.0,0
5755,,Touring Piscinas,43.30846835257175,-1.8915783612554635,1.0,0
5707,,Fanderia 17,43.30846618153342,-1.887645042726794,1.0,0
5742,,Ramon Astibia 15,43.30763501441992,-1.889213794841412,1.0,0
5741,,R. M.azkue,43.30867651204428,-1.893547429285775,1.0,0
5744,,Rotonda Gaztelutxo,43.30983425900233,-1.896880336136821,1.0,0
5689,,Agustinas 4,43.30763986522991,-1.8952924504259736,1.0,0
5706,,Elias Salaberria,43.30720809671909,-1.893475427247292,1.0,0
5728,,Markola 41,43.30689233499099,-1.892482429015056,1.0,0
5727,,Markola 25,43.30792355092155,-1.892969240793048,1.0,0
5726,,Markola 3,43.30690432261809,-1.894652284479724,1.0,0
5690,,Agustinas 40,43.3063092447828,-1.89363969163488,1.0,0
5688,,Agustinas 15,43.303450388575946,-1.8922490192025143,1.0,0
5717,,Hijas De La Cruz,43.30194471573087,-1.8929791108502605,1.0,0
5705,,Cementerio Zentolen,43.30032325031903,-1.8929099044368591,1.0,0
5704,,Butano,43.29708449380999,-1.8932029033738984,1.0,0
5752,,Talleres Zamalbide,43.29569816436875,-1.8951018598419351,1.0,0
5746,,Sagardiburu 1,43.29532528242565,-1.8956510271216056,1.0,0
6558,,Sagardiburu 2,43.29329923214315,-1.8975121209048689,1.0,0
5743,,Rotonda Egiburuberri,43.2915231053976,-1.901020380796162,1.0,0
5761,,Zamalbide Ermita,43.29109498503311,-1.906143699075139,1.0,0
5754,,Tolareberri,43.28836958979849,-1.9083373070586664,1.0,0
5708,,Floreaga Bidea,43.2842649107433,-1.9141543479992047,1.0,0
5737,,Perurena,43.282000260553765,-1.913676982557861,1.0,0
5719,,IntziÃ±arte,43.28590679053942,-1.9116353447116587,1.0,0
5762,,Zamalbide Ermita 2,43.29127661703491,-1.9053638547901757,1.0,0
5733,,P.i. Masti Loidi,43.30234178052033,-1.9042899639934296,1.0,0
5699,,Arramendi,43.30616790332077,-1.903271839529577,1.0,0
5739,,Pontika,43.3092691421856,-1.9036599695799057,1.0,0
5729,,Morrongilleta,43.31247536729305,-1.9018513150999663,1.0,0
5710,,Galtzaraborda 30,43.31191548526719,-1.904500226145646,1.0,0
5756,,Urbia Enparantza,43.31168291338518,-1.905601856795582,1.0,0
5718,,Instituto,43.31090805164461,-1.9083778552731068,1.0,0
5711,,Galtzaraborda 49,43.31111431798715,-1.911123935224776,1.0,0
5751,,Supermerkatua,43.31180501679582,-1.912739289063152,1.0,0
5713,,Galtzaraborda Igerilekuak,43.31330075867752,-1.9118987578881712,1.0,0
5698,,Anbulategia,43.31385890347215,-1.910939282928497,1.0,0
5694,,Alaberga 52,43.314919209851226,-1.9078744442059417,1.0,0
5695,,Alaberga 72,43.31614223509375,-1.9067673373770704,1.0,0
5715,,Gamon Ikastola,43.31769279697969,-1.907898757527469,1.0,0
193,,Sorgintxulo 11,43.31637590368605,-1.909550152779808,1.0,0
5722,,Kaia,43.31746357328606,-1.9112448625810683,1.0,0
5703,,Biteri 45,43.31448760524934,-1.903233199707504,1.0,0
5763,,Zumardia,43.312605585772566,-1.896669901694496,1.0,0
5760,,Zamalbide Casco,43.29183565667953,-1.904503269981396,1.0,0
5702,,Beraun 15,43.309291770174646,-1.908850680984588,1.0,0
5723,,Koldo Mitxelena,43.31091787821624,-1.9084639948156967,1.0,0
5736,,Parke 26,43.31201458066417,-1.9082717312869864,1.0,0
2557,,Urdaburu Kalea 46,43.312075311662966,-1.9118096441866583,1.0,0
5730,,Murumendi 8,43.31212102988273,-1.9118828145105704,1.0,0
5758,,Versalles,43.31769315020168,-1.907935747640814,1.0,0
5692,,Alaberga 103,43.31616924366247,-1.906766853131624,1.0,0
5753,,Telefonika,43.31521194696487,-1.907412930278386,1.0,0
5714,,Galtzaraborda Piscinas,43.313318647127005,-1.9118861074352391,1.0,0
5712,,Galtzaraborda 61,43.3117878314581,-1.912825912127748,1.0,0
5693,,Alaberga 40,43.31307567731034,-1.9071799194744727,1.0,0
5720,,Irumugarrieta Con Ernio,43.31337783153086,-1.9095914343222065,1.0,0
5747,,San Markos 1,43.31178410117668,-1.913380871499608,1.0,0
5748,,San Markos 15,43.31042152514126,-1.9149711451919351,1.0,0
5716,,Gerontologikoa,43.305947085124345,-1.916000134042832,1.0,0
5745,,Rotonda San Markosene,43.30761635991352,-1.916365030791466,1.0,0
5734,,P.i. Txirrita-maleo Danona,43.30408598992169,-1.908721875166575,1.0,0
5735,,P.i. Txirrita-maleo Txirrita,43.30227739331354,-1.9060295134745815,1.0,0
5749,,Sorgintxulo Dir Lartzabal,43.31632983125636,-1.9094399898877283,1.0,0
216,,Nafarroa Hirib. 75,43.31482332657109,-1.9025612567844887,1.0,0
1723,,Lartzabal1,43.30853394486889,-1.88258838861668,1.0,0
5725,,Lartzabal Anbulategia,43.30878803746401,-1.881868573675991,1.0,0
5724,,Lartzabal,43.31081733936061,-1.8886749348307708,1.0,0
5709,,Gabierrota,43.31067527672054,-1.8907367542591604,1.0,0
79,,Gamon Zumardia,43.31279749947261,-1.89696237712492,1.0,0
1713,,Rotonda Galicia,43.31490032881462,-1.9002661970344947,1.0,0
138,,Diputazio Pl.,43.31495943401207,-1.9026697915164077,1.0,0
5740,,Puerto,43.317462901149305,-1.912120453759104,1.0,0
179,,Sorgintxulo 11,43.316331712263406,-1.9096372661918823,1.0,0
5697,,Ambulatorio,43.3136990822408,-1.9111764326862597,1.0,0
5738,,Plaza Urbia,43.311530454633264,-1.905666247250172,1.0,0
5757,,Urdaburu 25,43.31263463009557,-1.91097347820744,1.0,0
5701,,Beraun - Estadio,43.30968978313116,-1.9118768701269688,1.0,0
187,,C/beraun,43.30928241442971,-1.9088138570295743,1.0,0
4101,,Gartzia Goldaratz 1,43.268191897885885,-1.973635766214766,1.0,0
4261,,Antziola Auzoa 40,43.27269879088977,-1.977170682824141,1.0,0
338,,Galarreta - Frontoia,43.27734215990623,-1.98797500299187,1.0,0
359,,Errekalde Hiribidea 51 - Tren Geltokia,43.27877772938445,-2.006905986330402,1.0,0
1943,,Urbil - Eroski,43.27601259427356,-2.021443687526209,1.0,0
361,,Donostia Etorbidea -Sasoeta Atsobakar,43.27249040190003,-2.018123615019112,1.0,0
496,,Tajamar Biribilgunea,43.27005546859397,-2.019789337739736,1.0,0
370,,Hipodromo Hiribidea 4,43.26925962869177,-2.021490277262544,1.0,0
364,,Irigoien Kalea 16 - Zubieta,43.270425449695296,-2.03257428323775,1.0,0
243,,Learritza Pasealekua,43.264718619306834,-2.054350465404668,1.0,0
244,,Santu-Enea Auzoa,43.26626211439631,-2.055891437766301,1.0,0
464,,Atailu Industrialdea - Biribilgunea,43.26784508461368,-2.052404457514234,1.0,0
1945,,San Inazio Kalea 3,43.27146782151296,-2.050586082881597,1.0,0
5036,,Txirrita Kalea 8,43.26750853912737,-1.975754315219734,1.0,0
237,,Zinkoenea Plaza,43.26788501765894,-1.973554668332729,1.0,0
1734,,Karabel Biribilgunea,43.2660289491016,-1.968423056306524,1.0,0
239,,Akerregi Bailara 3,43.26663700600211,-1.964962670444188,1.0,0
240,,Martindegi Bailara 21,43.26979997785048,-1.955322177751303,1.0,0
242,,Tranbia Ibilbidea - Ergobia,43.27608129587144,-1.953920724923458,1.0,0
418,,Tranbia Ibilbidea - Mundarro Erreka,43.27836342824767,-1.952390396503925,1.0,0
1701,,Donostia Ibilbidea - Lekueder,43.28046265095848,-1.95055497943572,1.0,0
4478,,Donostia Ibilbidea - Pelotari Biribilgunea,43.28302722469135,-1.949389304170437,1.0,0
2860,,Bizkaia Pasealekua 2 - Mundaiz Zubia,43.31108457315988,-1.979165925469747,1.0,0
4006,,Gernikako Arbolaren Pasealekua,43.31390418548204,-1.979303696287893,1.0,0
4146,,Maria Cristina Zubia,43.317736,-1.978924,1.0,0
1710,,Okendo Kalea 18,43.32156285370168,-1.980865093020795,1.0,0
5924,,"Askatasunaren Hiribidea, 28",43.319554,-1.982339,1.0,0
4780,,Zubieta Plaza,43.31545346451379,-1.987466019795257,1.0,0
298,,Zumalakarregi Hiribidea 4,43.31510095467928,-2.001653262615529,1.0,0
355,,Tolosa Hiribidea - Zubimusu Parkea,43.31286160574794,-2.006104490421188,1.0,0
346,,Tolosa Hiribidea - Magisteritza,43.31129511264319,-2.009249731671336,1.0,0
421,,Tolosa Hiribidea 70- Unibertsitatea,43.3070494965334,-2.008726855248014,1.0,0
356,,Tolosa Hiribidea 112,43.30490785174174,-2.006813584129013,1.0,0
205,,Tolosa Hiribidea 138,43.30223798389831,-2.004218635783612,1.0,0
302,,AÃ±orga Hiribidea - AÃ±orga Txiki I,43.2894622687752,-1.998214565680736,1.0,0
303,,AÃ±orga Hiribidea 36 - AÃ±orga I,43.28530054458607,-2.000082408956055,1.0,0
358,,AÃ±orga Hiribidea 60 - Arzakenea Ii,43.283413578069805,-2.001567695911134,1.0,0
383,,Kale Nagusia 4,43.26970719216311,-2.020127634196677,1.0,0
212,,Kale Nagusia 40 - Zumaburu,43.26609129141407,-2.019532588338717,1.0,0
384,,Kale Nagusia 70,43.26167368980104,-2.017853927096679,1.0,0
385,,Zirkuitu Ibilbidea 12 - Basaundi,43.25683426955192,-2.018436832626142,1.0,0
386,,Oria Hiribidea,43.25352030288769,-2.01945096239184,1.0,0
1263,,Arrapide Pasealekua - Bugati,43.253843662726766,-2.022513273996741,1.0,0
4397,,Bazkardo - Gasteizerantz,43.22060024473242,-2.024780643717868,1.0,0
390,,Txistoki Ibilbidea - Aparkalekua,43.21851182571391,-2.022745488218507,1.0,0
1238,,Kaleberria 22 - Renfe,43.2159206593717,-2.020890879318238,1.0,0
397,,"Aita Larramendi Kalea, 36 - Zumea Plaza",43.21266577589648,-2.02461162925233,1.0,0
393,,"Karrika Kalea, 2",43.20920374896271,-2.030464948946779,1.0,0
4123,,Sorabilla,43.20992412621725,-2.034725258289435,1.0,0
1726,,"Okendo Kalea, 10",43.322347,-1.981457,1.0,0
304,,Errekalde Hiribidea 21,43.278650732458985,-2.004726654508178,1.0,0
305,,Chillida Leku - Hernaniruntz,43.2773004415363,-1.999609554277505,1.0,0
306,,Jauregi Bailara 75,43.27782692234919,-1.991886034938927,1.0,0
307,,Galarreta - Parke Teknologikoa,43.27697156097648,-1.986798047598414,1.0,0
277,,Sorgintxulo Auzoa,43.272299921385546,-1.983942685725365,1.0,0
278,,Marieluts Auzoa 6,43.27030730624491,-1.980611769602188,1.0,0
2501,,Antziola Auzoa 17,43.27150321320363,-1.976389722851756,1.0,0
2516,,Antziola 10,43.26961185100415,-1.975337046947247,1.0,0
5177,,Urbieta Kalea,43.26751177401454,-1.977122005667367,1.0,0
5178,,Txantxilla Auzoa 7,43.26515759919819,-1.978689299916831,1.0,0
308,,Santa Barbara Bailara 30,43.26180613193988,-1.979496903508562,1.0,0
309,,Oztaran Auzoa,43.255337713674265,-1.987243070026644,1.0,0
310,,"Idiazabal Kalea, 12 - Anbulategia",43.25022,-1.990913,1.0,0
311,,"Idiazabal Kalea, 42 - Erdigunea",43.247663,-1.992792,1.0,0
1722,,"Idiazabal Kalea, 56 - Zelaialdea",43.245363,-1.993493,1.0,0
1721,,Salesianos,43.242618,-1.994951,1.0,0
316,,Ergoien Auzoa - Erratzu Industrialgunea,43.238233,-1.997525,1.0,0
317,,"Ergoien Auzoa, 20 - Xoxoka",43.236184,-1.999087,1.0,0
318,,"Gudarien Hiribidea, 57",43.229875,-2.003701,1.0,0
4124,,"Gudarien Hiribidea, 47",43.226471,-2.008289,1.0,0
319,,"Gudarien Etor Bidea, 35",43.223166,-2.014456,1.0,0
325,,Ama Kandida Hiribidea 23 - Kaletxiki,43.222199564519975,-2.018056930707677,1.0,0
321,,"Ama Kandida Hiribidea, 11",43.223183,-2.022533,1.0,0
322,,Goiko Plaza - San Martin Eliza,43.2199540485036,-2.020814022300965,1.0,0
395,,"Karrika Kalea, 1",43.209575733355045,-2.029732744931916,1.0,0
396,,"Aita Larramendi Kalea, 19 - Zumea Plaza",43.21275213508286,-2.024179367774051,1.0,0
398,,Kaleberria 10 - Renfe,43.21645122413688,-2.020808519215151,1.0,0
399,,Txistoki Ibilbidea - Eskailerak,43.21909161454566,-2.02315484509186,1.0,0
400,,Bazkardo - Donostiarantz,43.22193588743995,-2.025128738424494,1.0,0
405,,Antxisu Bailara 37,43.2487267262563,-2.020131462743824,1.0,0
20,,Oria Hiribidea - Zelaialde,43.252106154815785,-2.019399738852161,1.0,0
407,,"Zirkuitu Ibilbidea, 17 -Basaundi",43.25685058458436,-2.018239452405097,1.0,0
408,,Kale Nagusia - Oztaran,43.26099495394554,-2.017458254756895,1.0,0
215,,Kale Nagusia 41 - Zumaburu,43.26627993735028,-2.019480273161232,1.0,0
409,,Kale Nagusia 5,43.26961589293282,-2.019981229455708,1.0,0
372,,Donostia Etorbidea - Sasoeta Oriamendi,43.27214965358473,-2.018289292138383,1.0,0
375,,Errekalde Hiribidea - Tren Geltokia,43.2785084892053,-2.007008959588112,1.0,0
376,,AÃ±orga Hiribidea - Arzakenea I,43.28339352750165,-2.001333844360725,1.0,0
342,,AÃ±orga Hiribidea 59 - AÃ±orga Ii,43.285715501437,-1.999138857981902,1.0,0
343,,AÃ±orga Hiribidea - AÃ±orga Txiki Ii,43.289485067174304,-1.997733459309871,1.0,0
202,,Tolosa Hiribidea - Amerika Plaza,43.30235083809959,-2.003735960074347,1.0,0
377,,Tolosa Hiribidea - Lorea,43.30502082378884,-2.006343219664006,1.0,0
203,,Tolosa Hiribidea 77 - Unibertsitateak,43.30718187223431,-2.008416452806431,1.0,0
4038,,Tolosa Hiribidea 13 - Magisteritza,43.31227500195036,-2.006989556969367,1.0,0
380,,"Zumalakarregi Hiribidea, 11 - Esklabak",43.31444,-2.002721,1.0,0
4779,,Zubieta Plaza,43.31576671673923,-1.987251177963389,1.0,0
4270,,Urbieta 28,43.31696963907977,-1.982779339409825,1.0,0
382,,"Etxaide Kalea, 3",43.31996007687941,-1.979855945231185,1.0,0
6,,ZikuÃ±aga Bailara,43.2648139722727,-1.967494820636234,1.0,0
9002,,Epele,43.26177911867228,-1.949656220174537,1.0,0
9003,,Fagollaga,43.24830911321037,-1.951698496250272,1.0,0
9004,,EreÃ±ozu,43.24287614418439,-1.940595468761804,1.0,0
9005,,Latxe,43.2381996910546,-1.934444552134724,1.0,0
9006,,Pikoaga,43.22353640395341,-1.924406208636136,1.0,0
323,,Ama Kandida Hiribidea,43.22308278531132,-2.022352331986578,1.0,0
1720,,Ama Kandida Hiribidea - Kaletxiki,43.22194970853112,-2.017272918583372,1.0,0
326,,Gudarien Hiribidea 2 - Martin Ugalde Parkea,43.22293689988352,-2.014794450580196,1.0,0
327,,Gudarien Hiribidea 47 Parean,43.226798901955554,-2.007393208450928,1.0,0
328,,Gudarien Hiribidea 57 Parean,43.22924612215205,-2.004053256049536,1.0,0
329,,Ergoien Auzoa - Xoxoka,43.236072509707085,-1.999003485156377,1.0,0
330,,Ergoien Auzoa 18  -  Erratzu Industrialgunea,43.23803192657583,-1.997567373677231,1.0,0
332,,"San Jose Obrero,6.Colegio Salesianos (Urnieta)",43.242613,-1.994784,1.0,0
334,,Idiazabal Kalea - Erdigunea,43.247283013076,-1.992833390308053,1.0,0
335,,Idiazabal Kalea 3 - Anbulategia,43.24970053005602,-1.991278385263064,1.0,0
336,,Oztaran Auzoa - Langarda,43.25561092093695,-1.986573282100887,1.0,0
337,,Santa Barbara Bailara - Hilerria,43.26185026836962,-1.979397599173533,1.0,0
4102,,Izpizua Kalea - Aratz Ikastetxea,43.265060104533845,-1.978863431404613,1.0,0
280,,Elkano Kalea - Atsegindegi Plaza,43.267013185308585,-1.976748375601681,1.0,0
282,,Karobieta Auzoa 33,43.267846810668736,-1.981367516811709,1.0,0
283,,Marieluts Auzoa 48 - Errepidea,43.270572216918325,-1.983059553903276,1.0,0
339,,Jauregi Bailara 67 - Loretoki,43.278087032773854,-1.994839539330683,1.0,0
4872,,"Jauregi Bailara,66 - Chillida Leku",43.277297423282704,-1.99926453159551,1.0,0
340,,Jauregi Bailara 65 - Gasolindegia,43.27780993940717,-2.00124031297464,1.0,0
341,,Errekalde,43.27944794489414,-2.005280583165334,1.0,0
1140,,Oria Kalea - Zezen Plaza,43.13330977675107,-2.076935217381898,2.0,0
1251,,Nafarroa Hiribidea 1,43.13492220275628,-2.073664981982635,2.0,0
937,,Ibaiondo Kalea 1,43.13687575320986,-2.071385364053656,2.0,0
1252,,"Larramendi Kalea, 8 - Arramele",43.14175,-2.07116,2.0,0
4215,,Santa Lutzia Auzoa,43.14520999336908,-2.069771219675699,2.0,0
1255,,Zilar Kalea 1 - Trinketea,43.167888805933465,-2.065970250928514,2.0,0
913,,Kale Berria 66 - Eliza,43.186014688738496,-2.052772998062775,2.0,0
1258,,Kale Berria 11,43.18993160470164,-2.052761648242238,2.0,0
217,,Mendeurrenaren Plaza - Centenario,43.312670450057134,-1.980298506733792,1.0,0
198,,Antso Jakitunaren Hiribidea 26,43.30880351193277,-1.979845284310134,1.0,0
1702,,Donostia Ibilbidea 38 - Hezegunea,43.28312625806467,-1.949387599788384,1.0,0
4479,,Donostia Ibilbidea- Industrialgunea,43.28043914627109,-1.950937446921747,1.0,0
417,,Tranbia Ibilbidea - Erribera Kulturgunea,43.27857780830769,-1.952201854336525,1.0,0
229,,Tranbia Ibilbidea 28 - Ergobia,43.27607465912306,-1.954179637311909,1.0,0
4206,,Troia Ibilbidea 22,43.2723858818386,-1.954513916787042,1.0,0
241,,Martindegi Bailara - Biribilgunea,43.26924954872153,-1.956181836227491,1.0,0
234,,Akerregi Bailara 4,43.26670958825543,-1.965023049817705,1.0,0
1241,,Kale Berria 10,43.18993262350163,-2.052884696680771,2.0,0
4398,,Kale Nagusia 72 - Kiroldegia,43.18520590428938,-2.052970086521269,2.0,0
1242,,Arroa Auzoa,43.18151392418939,-2.054048451129781,2.0,0
1248,,"Larramendi Kalea, 11",43.144902,-2.071529,2.0,0
1250,,"Larramendi Kalea, 1 - Arramele",43.14165,-2.071332,2.0,0
4399,,"Rondilla Kalea, 34 - Gorosabel",43.139215,-2.073489,2.0,0
1096,,"San Frantzisko Ibilbidea, 1 - Eliza",43.13665,-2.074253,2.0,0
712,,"Begiristain Doktorea, Ospitalea I",43.29319072694272,-1.96890088982013,1.0,0
351,,Begiristain Doktorea - Ospitalea Ii,43.29304366017031,-1.970567543749704,1.0,0
3940,,Begiristain Doktorea 218 - Onkologikoa,43.29155347991601,-1.974081187074012,1.0,0
3943,,Miramon Pasealekua - Poliklinika I,43.29058970160965,-1.980088156757382,1.0,0
3944,,Mikeletegi - Miramon,43.28808617743621,-1.98207752821138,1.0,0
5511,,Mikeletegi Pasealekua 5,43.28707797910933,-1.985151184085864,1.0,0
274,,Oriamendi Pasealekua - Goiaztxiki,43.28509665327375,-1.98714389169269,1.0,0
275,,Oriamendi Pasealekua 164 - Bentatxiki,43.28307441285856,-1.989605502689819,1.0,0
276,,Jauregi Bailara 78,43.27749636303169,-1.98708511609004,1.0,0
263,,Urbieta Kalea 38,43.31614498393865,-1.982188836045878,1.0,0
552,,Aldapeta Galtzada - Londaitz,43.31391610048193,-1.989772856294296,1.0,0
265,,Aiete Pasealekua - La Cumbre,43.31055416567535,-1.990420421342135,1.0,0
564,,Aiete Pasealekua - Izaburu,43.3096253485258,-1.991286603355246,1.0,0
553,,Aiete Pasealekua - Munto Alde,43.30816544926345,-1.992173864634313,1.0,0
292,,Aiete Pasealekua 66 - Munto,43.30706295316855,-1.99274693218856,1.0,0
268,,Aieteko Jauregia I,43.30428521379824,-1.992250303517031,1.0,0
269,,Aiete Pasealekua - Etxadi,43.30241752696294,-1.990801667277097,1.0,0
270,,Oriamendi Pasealekua 20,43.29885707426837,-1.99140300969935,1.0,0
271,,Oriamendi Pasealekua - Pakea,43.29475686189465,-1.99206250430933,1.0,0
272,,Oriamendi Pasealekua 86,43.29094427685016,-1.990621608868104,1.0,0
273,,Oriamendi Pasealekua 112,43.287027907218736,-1.987629535900534,1.0,0
284,,Galarreta Auzoa 1,43.27755862116419,-1.986997814888323,1.0,0
286,,Oriamendi Pasealekua - Goiaztxiki,43.28517538938656,-1.986883747796811,1.0,0
287,,Oriamendi Pasealekua - Intxaurdegi,43.28719203607592,-1.987861007663976,1.0,0
288,,Oriamendi Pasealekua - Katxola,43.2912879187836,-1.990788500865206,1.0,0
289,,Oriamendi Pasealekua - Pakea,43.294846350117936,-1.991999388424477,1.0,0
290,,Oriamendi Pasealekua 11,43.29956647313685,-1.991181697936534,1.0,0
291,,Aiete Pasealekua 93,43.30201779938714,-1.990401422962101,1.0,0
1729,,Aieteko Jauregia Ii,43.30435713014786,-1.992236785973035,1.0,0
293,,Aiete Pasealekua 53 - Munto,43.307277725011176,-1.992595424775265,1.0,0
563,,Aiete Pasealekua 17 - Iza,43.30998340666592,-1.9910463998079,1.0,0
295,,Aiete Pasealekua 3 - La Cumbre,43.310845389239866,-1.989749738252534,1.0,0
296,,Aldapeta Galtzada - Marianistak,43.31446885221917,-1.987112423606969,1.0,0
3750,,Easo Kalea 9,43.31753219662991,-1.984274474311394,1.0,0
260,,"Antso Jakitunaren Hiribidea, 33",43.308347,-1.979512,1.0,0
218,,Aita Donostia Plaza - Anoeta,43.30278237315749,-1.975125282862602,1.0,0
736,,Barcelona Hiribidea 28,43.311126453501,-1.971779054474113,1.0,0
219,,Loiola Zeharbidea - La Salle,43.31056351847221,-1.968261959571079,1.0,0
220,,Loiola Zeharbidea 12,43.30865952358699,-1.96681452827308,1.0,0
4099,,Aintzieta Pasealekua - Hipika 12,43.30676175400462,-1.9660575578476325,1.0,0
459,,Aintzieta Pasealekua-Loiola Renfe,43.30471330666688,-1.963577054311819,1.0,0
223,,Martutene Pasealekua - Renfe,43.299071817398485,-1.956127915620711,1.0,0
516,,Martutene Pasealekua 67 - Futbol Zelaia,43.2973108190125,-1.954580055080445,1.0,0
224,,Martutene Pasealekua - Ibai Alde,43.295476667765016,-1.953896474714941,1.0,0
247,,Martutene Pasealekua 94,43.291864711636336,-1.951801177752983,1.0,0
394,,Sorabilla,43.20955779122137,-2.035063415630956,1.0,0
1239,,Ubegun Industrialdea 1,43.198330251582114,-2.040557475835417,2.0,0
4303,,Agaraitz Industrialdea,43.19651397982986,-2.051675209579466,2.0,0
1243,,Ibaiondo Bailara,43.17570677524381,-2.05742315286371,2.0,0
1244,,Kale Nagusia 6,43.16770487490759,-2.067707629825166,2.0,0
971,,"Kale Nagusia, 26",43.166717,-2.068766,2.0,0
4122,,Pikoaga,43.22352716937038,-1.924381744713659,1.0,0
4121,,Latxe,43.23819114683648,-1.934493965447245,1.0,0
3991,,EreÃ±ozu,43.24288423472417,-1.940496792161392,1.0,0
3990,,Fagollaga,43.24832757089948,-1.951747452271318,1.0,0
3989,,Epele,43.26179196722626,-1.950074908640048,1.0,0
463,,Atailu Industrialdea,43.26791711133951,-2.05240334008643,1.0,0
256,,Santu-Enea Auzoa 38,43.26619161281386,-2.056077354085159,1.0,0
266,,Learritza Pasealekua,43.27109699685682,-2.035323944098482,1.0,0
367,,Irigoien Kalea - Zubieta,43.27038881126222,-2.032500927890108,1.0,0
369,,Hipodromo Hiribidea,43.26921324205165,-2.021330829509601,1.0,0
515,,Martutene Pasealekua 141,43.287887782373865,-1.948208617162059,1.0,0
246,,Martutene Pasealekua 125,43.29162746965388,-1.95146009973148,1.0,0
249,,Martutene Pasealekua 89 - Larrumendi,43.29535028716148,-1.953861658427305,1.0,0
517,,Martutene Pasealekua - Futbol Zelaia,43.29737395286509,-1.954591301413527,1.0,0
250,,Martutene Pasealekua 53 - Renfe,43.29899833049844,-1.955968904016681,1.0,0
251,,Martutene Pasealekua 17,43.30241867631543,-1.957796717847506,1.0,0
252,,Aintzieta Pasealekua,43.30374113862316,-1.960634530438736,1.0,0
253,,Txomin Enea,43.30480423074263,-1.963674145882076,1.0,0
5260,,Aintzieta Pasealekua - Hipika,43.30685989583994,-1.9659572544698931,1.0,0
255,,Loiola Zeharbidea - Patxillardegi,43.308666521700125,-1.966592463693142,1.0,0
257,,Loiola Zeharbidea - Topoa,43.30988805743442,-1.967249947972919,1.0,0
733,,Barcelona Hiribidea 35,43.311228590182616,-1.972122596381683,1.0,0
735,,Madril Hiribidea 19,43.30342468411287,-1.975459711561634,1.0,0
259,,"Madril Hiribidea, 3",43.30529,-1.977338,1.0,0
349,,Miramon Pasealekua -Poliklinika Ii,43.29026306150234,-1.979810103155116,1.0,0
392,,Begiristain Doktorea- Ospitaleko Aparkalekua,43.2926028200692,-1.971610455722138,1.0,0
1944,,Zelaiaundi Kalea - Biribilgunea,43.271590855939394,-2.053480043433676,1.0,0
451,,Ugalde Industrialdea - Eskailerak,43.270734119407145,-2.044657951626905,1.0,0
7484,,Oria Hiribidea 7 - Eliza,43.253573055333945,-2.019302285272981,1.0,0
5512,,Mikeletegi Pasealekua 6,43.28698014749012,-1.985288396208289,1.0,0
1725,,Mikeletegi Pasealekua 12,43.28806817119828,-1.982077828510477,1.0,0
1781,,Begiristain Doktorea 121 - Onkologikoa,43.29165665127942,-1.973537069153344,1.0,0
350,,Begiristain Doktorea 115 - Ospitalea,43.29279068643096,-1.970473194135473,1.0,0
1256,,Laskibar Bailara,43.1736887902108,-2.059496516168516,2.0,0
1259,,Kale Berria - Burni Zubi,43.1932525173285,-2.053633314621422,2.0,0
447,,Aginaga Auzoa 12 -  Errazti,43.272375502028105,-2.074540256443666,1.0,0
855,,Santa Klara,43.136535811488855,-2.071661014086388,2.0,0
430,,"Kalezar Auzoa 9, Eskailerak",43.270629063463886,-2.045016952361542,1.0,0
433,,Aginaga Auzoa - Etxeberri,43.2727954703947,-2.074139552573893,1.0,0
1094,,Errezilgo Plaza,43.16487584014418,-2.17414548438928,4.0,0
4245,,Intsausti,43.167780982925606,-2.177427883053133,4.0,0
4246,,Loidi,43.17027696881149,-2.1953929434189856,4.0,0
4247,,Bentaberri,43.17436566405939,-2.2057847847028924,4.0,0
4248,,Irurena,43.17871610326056,-2.236378162771336,4.0,0
1107,,Landeta,43.17767429134582,-2.2586982930748905,4.0,0
1108,,"Artzubia Hiribidea, 35 - Garmendipe",43.1799508842925,-2.2626327847392664,4.0,0
1055,,Anbulategia,43.181318078928975,-2.2680058033030512,4.0,0
942,,Zumarragako Ospitalea,43.08336623932049,-2.3133135435324097,5.0,0
4374,,Izazpe,43.0848478592771,-2.3171300427595627,5.0,0
1660,,Renfe Geltokia,43.087074224113806,-2.320520779643385,5.0,0
4380,,Elizalde,43.08916576340479,-2.3133839056906584,5.0,0
7738,,San Gregorio 4,43.08672915794123,-2.3110031077407696,5.0,0
4828,,Etxeberri,43.09974828701484,-2.3167064107629955,5.0,0
6102,,AgiÃ±era Bidegurutzea,43.11146471224206,-2.3229672608146834,5.0,0
1075,,Aizpurutxo,43.13305586797596,-2.352126620119096,4.0,0
1073,,Olotzaga,43.165096052288646,-2.330469632510075,4.0,0
1070,,Azkoitiko Industrialdea,43.172440110251465,-2.322183334127587,4.0,0
6103,,Altzibar,43.175522688279685,-2.3181382728303537,4.0,0
1084,,San Martin,43.17611253907443,-2.312878031535904,4.0,0
4035,,Munibe,43.17707108647644,-2.3090653819723848,4.0,0
1085,,Txerloia,43.17346103847364,-2.301785702310136,4.0,0
1032,,Munategi,43.17423862330689,-2.2905931289216737,4.0,0
1033,,Loiola,43.17596084164032,-2.27943837967575,4.0,0
1035,,Sanjuandegi,43.17904052691238,-2.270924517398329,4.0,0
1034,,Anbulategia,43.18122709440579,-2.26785923375902,4.0,0
1037,,Trenbidearen Museoa,43.1855346447015,-2.261371935788076,4.0,0
1038,,Danona,43.2080816736744,-2.25434166639119,4.0,0
1039,,Lasao,43.21919153955796,-2.256828817677876,4.0,0
1040,,Alberdikoa,43.2254790743633,-2.2585748512380546,4.0,0
1041,,Bainuetxea,43.2335583714295,-2.256137013324961,4.0,0
1042,,Zestoa,43.24065973870538,-2.25702363713454,4.0,0
4806,,"Iraetabidea 10, Iraeta",43.25480945101542,-2.260350371197648,4.0,0
6105,,Iraetako Geltokia,43.25501576006752,-2.2658177600192744,4.0,0
1088,,Arroaerreka,43.26373068937756,-2.2712206643611323,4.0,0
6106,,Arroabea,43.27752906900251,-2.2675313050965498,4.0,0
6107,,Narrondo,43.284580583331575,-2.2634778822284245,3.0,0
6108,,Patxita Etxezarreta,43.29414531577033,-2.2554358988923067,3.0,0
1118,,Zumaiako Geltokia,43.2919296386202,-2.251210111690788,3.0,0
2862,,Donostiako Autobus Geltokia,43.31656267706511,-1.9775327241985927,1.0,0
482,,"Askatasunaren Etorb./avda. De La Libertad, 24",43.319592721609766,-1.98208195072252,1.0,0
420,,Zumalakarregi Etorb. 14,43.31448127669487,-2.002871896861321,1.0,0
346,,Tolosa Hiribidea - Magisteritza,43.31129511264319,-2.0092497316713365,1.0,0
826,,Unibertsitatea,43.30685936153231,-2.008606645438753,1.0,0
4039,,Arroabea,43.268515263976845,-2.27171808308517,4.0,0
1063,,Arroaerreka,43.26327204237853,-2.271312384290934,4.0,0
1087,,Iraetako Geltokia,43.25510169430832,-2.2665805415922056,4.0,0
1066,,Iraeta,43.254819171695125,-2.260461129247493,4.0,0
1049,,Zestoa,43.23858712458137,-2.2553984445854063,4.0,0
1050,,Bainuetxea,43.23124021133378,-2.2555248404107475,4.0,0
1051,,Alberdikoa,43.22690631473094,-2.259271758351783,4.0,0
1052,,Lasao,43.21711435842538,-2.257272651354365,4.0,0
1053,,Danona,43.207912524666966,-2.25463916876129,4.0,0
1054,,Julian Elorza Etorbidea 3,43.18583181925174,-2.2627711953566885,4.0,0
1056,,Sanjuandegi,43.17917621388576,-2.271021337298981,4.0,0
1057,,Loiola,43.17619796678117,-2.2799154359523937,4.0,0
1058,,Munategi,43.1743287398971,-2.2906043890751264,4.0,0
1067,,"Julio Urkixo, 40",43.17495011886621,-2.305287526323512,4.0,0
1059,,"Julio Urkixo, 7",43.178292516754944,-2.308534835713239,4.0,0
1068,,San Martin,43.17629239880162,-2.312839103578825,4.0,0
1083,,Altzibar,43.17534289993554,-2.318189487464686,4.0,0
1837,,Arroabea,43.26859661236933,-2.271766402358228,4.0,0
202,,Tolosa Hiribidea - Amerika Plaza,43.30235083809959,-2.0037359600743474,1.0,0
377,,Tolosa Hiribidea - Lorea,43.30502082378884,-2.006343219664006,1.0,0
203,,Tolosa Hiribidea 77 - Unibertsitateak,43.30718187223431,-2.008416452806431,1.0,0
4038,,Tolosa Hiribidea 13 - Magisteritza,43.31227500195036,-2.0069895569693665,1.0,0
380,,Zumalakarregi Hiribidea 11 - Esklabak,43.31480621889056,-2.0019293829303835,1.0,0
4780,,Zubieta Plaza,43.31545346451378,-1.9874660197952572,1.0,0
4877,,"Askatasuna/libertad, 3",43.32039913683784,-1.979614277009036,1.0,0
1092,,Artzubia Hiribidea - Garmendipe,43.17991574063968,-2.262768556629488,4.0,0
1093,,Landeta,43.17760257851692,-2.258748376582265,4.0,0
4220,,Irurena,43.17877781655185,-2.236180526194761,4.0,0
4221,,Bentaberri,43.17427830587391,-2.20487547211968,4.0,0
4222,,Loidi,43.170132907387554,-2.195394834603597,4.0,0
4223,,Intsausti,43.16775344084118,-2.1773544407072105,4.0,0
7008,,Zumaiako Geltokia,43.29176773221008,-2.251236752090031,3.0,0
6058,,Patxita Etxezarreta,43.2944867132336,-2.2567014689038176,3.0,0
1062,,Narrondo,43.28496984071205,-2.265198770795364,3.0,0
1119,,Arroabea,43.277664284159,-2.2675543313671795,4.0,0
1082,,Azkoitiko Industrialdea,43.172504377768426,-2.3223917738795,4.0,0
1081,,Olotzaga,43.16588510207136,-2.3298951389799023,4.0,0
1080,,Aizpurutxo,43.13290279639752,-2.352128236000836,4.0,0
6048,,AgiÃ±era Bidegurutzea,43.11136617513647,-2.3230543820305067,5.0,0
6062,,Etxeberri,43.09947845455506,-2.316758564793145,5.0,0
6049,,Labeaga 14,43.09143818628135,-2.315422690614592,5.0,0
4376,,IpiÃ±arrieta/berriki,43.08841621825666,-2.3205673758991647,5.0,0
945,,Poblado Aparicio,43.07882402751089,-2.3263118281731647,5.0,0
531,,Izazpi,43.08477743799477,-2.317401103761375,5.0,0
4399,,Rondilla Kalea 34- Gorosabel,43.139234031903634,-2.073489220056077,2.0,0
1097,,Renfe-jesuitinas,43.13464816152752,-2.077640510302915,2.0,0
1104,,Benta Haundi,43.126208890299615,-2.0875161854919533,2.0,0
4236,,Otzarain,43.12420367796819,-2.092401821632906,2.0,0
4237,,Urreta,43.12511669587574,-2.120527978378892,2.0,0
4239,,Ugarte,43.128958565730855,-2.12835351486488,2.0,0
4240,,Arkatzpe,43.1294394002138,-2.132379216406777,2.0,0
4241,,Eliza,43.12972711196133,-2.13708388821534,2.0,0
4242,,Gaiztarro,43.1255486659416,-2.139441515707877,2.0,0
1100,,Santutxu,43.1219546345716,-2.152559144055599,2.0,0
1102,,Zelai,43.13384724460831,-2.1595261463742523,2.0,0
1101,,Toki Alai,43.13732939636249,-2.160388348115507,2.0,0
1105,,Bidegoiango Plaza,43.14012615133384,-2.159882812264096,2.0,0
4243,,Izagirre,43.14565231801224,-2.159511992450858,2.0,0
4254,,Ostatua,43.15264370400741,-2.161248728451045,4.0,0
4227,,Ibarguren,43.15969312571404,-2.1610784982386604,4.0,0
4255,,Egurbide,43.16408184525717,-2.1627775216579543,4.0,0
4244,,Letea,43.164254731254815,-2.1667238736822414,4.0,0
1086,,Sebastopol-iraeta,43.253959185125225,-2.259757014116801,4.0,0
1043,,Aizarnazabal,43.25226428120602,-2.2361620099441564,3.0,0
4042,,Zubialde,43.260255249381416,-2.2367520701029813,3.0,0
4044,,Etxabe,43.26582541093381,-2.2348588594639,3.0,0
1044,,Oikiako Bidegurutzea,43.2752000506668,-2.22829615005074,3.0,0
1045,,Meagas,43.281203327445255,-2.209437219559097,3.0,0
4046,,Monte Albertia,43.28328136078223,-2.1784862486956627,3.0,0
424,,Torre Luzeako Parkea 2- Erdigunea,43.28666809315569,-2.1748784750922843,3.0,0
425,,Nafarroa Kalea- Sanzenea,43.28598076396782,-2.169489067861358,3.0,0
426,,Nafarroa 54-iÃ±urritza,43.285625738897664,-2.1615561333573337,3.0,0
985,,San Antolin,43.22792583350551,-2.4028173757986067,8.0,0
987,,Mupen,43.21753270863047,-2.4111555671306792,8.0,0
900,,Txankakoa,43.21568065959452,-2.416996805677828,8.0,0
993,,Azitain,43.18986416640584,-2.4553311385317804,8.0,0
4316,,Urkizu,43.18692870039944,-2.462962279672899,8.0,0
1124,,"San Juan Kalea, 07",43.185243672436094,-2.4723907989244056,8.0,0
1408,,Unibertsitatea,43.18016462742822,-2.4881597303328973,8.0,0
6027,,"Baldespina Markesa, 14",43.18623101977707,-2.5038850231367684,8.0,0
1553,,"Bizkaia Etorbidea, 11",43.18572447959832,-2.503359982275987,8.0,0
6029,,Unibertsitatea,43.178994395446935,-2.4902612366064427,8.0,0
850,,Unzaga,43.18400408144223,-2.473053655635133,8.0,0
999,,Bidebarrieta,43.18563969308463,-2.4645979232309863,8.0,0
1000,,Azitain,43.189816624484976,-2.454802383116163,8.0,0
4417,,Urazandi,43.21630284227775,-2.41364207137223,8.0,0
6022,,Mupen,43.21736150251147,-2.4111325906397982,8.0,0
1008,,San Antolin,43.227798425258,-2.402560023535269,8.0,0
4315,,Txankakoa,43.21557279753003,-2.417034768198218,8.0,0
669,,LarraÃ±aga,43.16397644349168,-2.247399185442495,4.0,0
5319,,Urrestilla,43.1574322819634,-2.245007223568514,4.0,0
679,,Makibar,43.150859574858345,-2.2383238984511724,4.0,0
668,,Atzaran-ugasaundi,43.1460651303763,-2.232345284536234,4.0,0
5062,,Nuarbe,43.13783556872985,-2.233800808241472,4.0,0
680,,Trintxera,43.13204608979025,-2.2152832904977946,4.0,0
5057,,Beizama Bildua- Frontoia,43.13407229846239,-2.199703899782903,4.0,0
4224,,Letea,43.1642651682645,-2.166920552448135,4.0,0
4225,,Egurbide,43.16412596395354,-2.162653906524348,4.0,0
4226,,Ibarguren,43.159715550823606,-2.161680909801806,4.0,0
4229,,Ostatua,43.15266369471018,-2.161519032187006,4.0,0
4228,,Izagirre,43.146049930202814,-2.1597033067229896,2.0,0
1109,,Bidegoiango Plaza,43.14012687355098,-2.159981173948552,2.0,0
1110,,Toki Alai,43.13744770891781,-2.160558871971676,2.0,0
1111,,Zelai,43.13384724460831,-2.1595261463742523,2.0,0
1112,,Santutxu,43.12164622839715,-2.152256082453901,2.0,0
4231,,Gaiztarro,43.1256022263417,-2.1393792972013688,2.0,0
4232,,Eliza,43.12968200040011,-2.1370722280957333,2.0,0
4233,,Arkatzpe,43.12939900241156,-2.131801955780568,2.0,0
4234,,Ugarte,43.1289420564799,-2.128550456491058,2.0,0
4238,,Urreta,43.125261605980434,-2.12063654343814,2.0,0
4235,,Otzarain,43.12408682527381,-2.092428135658689,2.0,0
1114,,Benta Haundi,43.12612726919188,-2.08744363703587,2.0,0
1140,,Oria Kalea - Zezen Plaza,43.13330977675107,-2.0769352173818985,2.0,0
1251,,Nafarroa Hiribidea 1,43.13492220275628,-2.0736649819826347,2.0,0
937,,Ibaiondo Kalea 1,43.13687575320986,-2.0713853640536564,2.0,0
2446,,Unzaga Lateral,43.18447553470608,-2.4737510082031684,8.0,0
422,,Nafarroa-iÃ±urritza,43.28581565019693,-2.162897032627825,3.0,0
414,,Nafarroa Kalea- Gurutze Gorria,43.28606865179965,-2.169192052616575,3.0,0
423,,Bixkonde 15- Erdigunea,43.28680545852966,-2.175197093251509,3.0,0
1046,,Meagas,43.28129361992188,-2.209473024941928,3.0,0
1047,,Oikiako Bidegurutzea,43.27504856636607,-2.228532212743362,3.0,0
4045,,Etxabe,43.26587150110018,-2.235018464870626,3.0,0
4043,,Zubialde,43.2601476149482,-2.236815017652562,3.0,0
1048,,Aizarnazabal Plaza,43.25243329654574,-2.2358519215901693,3.0,0
4040,,Sebastopol-iraeta,43.25426268438443,-2.2593467972792918,4.0,0
2277,,Santa Ageda,43.12255416319588,-2.182988157137315,4.0,0
373,,Trintxera,43.13281370098754,-2.2156054404646857,4.0,0
4883,,Nuarbe,43.13793395369928,-2.233701211556524,4.0,0
519,,Atzaran-ugasaundi,43.14589364265467,-2.2322859424484927,4.0,0
670,,Makibar,43.15069529259478,-2.2379938769184986,4.0,0
5063,,Urrestilla,43.15732390972328,-2.2449593582538885,4.0,0
374,,LarraÃ±aga,43.16424038952397,-2.247826490640001,4.0,0
2278,,Loiola,43.175879430030086,-2.2822445675222225,4.0,0
1,,Boulevard 9,43.322473476542896,-1.9830205009480208,1.0,0
2,,Urbieta 12,43.31793043335736,-1.983490910721436,1.0,0
3,,Urbieta 58,43.31415211959495,-1.980853308720116,1.0,0
4,,Sancho Sabio 12,43.3100759148758,-1.980156927918336,1.0,0
5,,S.Sabio 28,43.308010251087886,-1.979747580464616,1.0,0
6,,Madrid 14,43.30449995876709,-1.9768842027367768,1.0,0
7,,Madrid 28,43.30299176340375,-1.9753806780529009,1.0,0
8,,Toribio Alzaga,43.30505633011982,-1.9736568435090072,1.0,0
9,,La Salle,43.30990006586615,-1.96758267041768,1.0,0
600,,Urbieta 38,43.31617265152618,-1.9822623653565483,1.0,0
601,,Hipica Cuarteles Loiola,43.30684211267283,-1.9659822158771747,1.0,0
602,,Etxadi Parkea II,43.30102034021876,-1.988593268074832,1.0,0
603,,Elizasu,43.315016457889136,-1.934410323891657,1.0,0
604,,Txapinene,43.31503618680662,-1.9345949533613007,1.0,0
605,,Atotxa Erreka 62,43.29340132389823,-2.001774117671661,1.0,0
606,,San Antonio,43.319719053932175,-1.9424182973128803,1.0,0
607,,Luis Pradera 9,43.32087536304548,-1.9467270512252808,1.0,0
608,,Morlans 73,43.30529769118199,-1.9886209865159004,1.0,0
609,,Luis Pradera 1,43.32104293880161,-1.9483027588251003,1.0,0
610,,Morlans Ascensor,43.307814144344974,-1.9870626496576804,1.0,0
611,,Morlans 19,43.30835608114575,-1.9842053554783088,1.0,0
613,,Garbera II,43.308156044729856,-1.948130428720952,1.0,0
500,,Ubarburu 31,43.301231910676506,-1.9462032354205985,1.0,0
501,,Ubarburu 5,43.30233861150905,-1.951991101721301,1.0,0
503,,Errondo-Podavines,43.30209445399384,-1.9797602181264105,1.0,0
505,,Isturin,43.30962298074355,-1.9951091082833223,1.0,0
507,,Ategorrieta,43.32202937900745,-1.967623942111444,1.0,0
508,,Plaza San Luis,43.31892476234312,-1.9383253848736592,1.0,0
509,,Mikeletegi 6,43.28693524117914,-1.9853014686887616,1.0,0
510,,Mikeletegi 5,43.2871053165509,-1.9851877075040327,1.0,0
511,,Merkezabal 13,43.30227253855765,-1.986624518663869,1.0,0
512,,Borroto 20,43.30215669485771,-1.9887963511791211,1.0,0
513,,FrontÃ³n Ategorrieta,43.32246371686901,-1.9599083833256128,1.0,0
514,,Bordatxipi-Lore Toki,43.32380087018064,-1.9604035714675607,1.0,0
515,,Larraga Arbola,43.32364179965145,-1.9617259541160388,1.0,0
516,,Rodil 91,43.3247358089854,-1.963212017507795,1.0,0
517,,Rodil 69,43.32535196994421,-1.964632247710495,1.0,0
518,,Rodil 55,43.32565122399287,-1.965860541750988,1.0,0
519,,Manteo,43.325560122012256,-1.967736817770504,1.0,0
401,,Matigotxotegi-Parking,43.31824709508667,-1.9635936725084808,1.0,0
522,,F. G. Lorca 6,43.314284791861866,-1.977558587734272,1.0,0
402,,Barcelona 26,43.31109911180543,-1.9717425229671857,1.0,0
523,,Tolaregoia 2,43.31577771441225,-1.967335177274788,1.0,0
524,,Garro Zubia,43.31788421958888,-1.9465444125763165,1.0,0
525,,Gregorio OrdoÃ±ez,43.30583236388895,-1.9738410622973772,1.0,0
404,,San Roque 12,43.31219095934714,-1.984092157057188,1.0,0
405,,Barcelona 10,43.309270050593085,-1.9716130644108427,1.0,0
526,,Zorroagako Gaina 1,43.30320235827408,-1.96875634347683,1.0,0
527,,Mendigain,43.30604275495155,-1.9672040875009649,1.0,0
528,,Zorroagako Gaina 2,43.30219679237724,-1.9680829163597708,1.0,0
529,,Ospitaleak-LarraÃ±ategi,43.29426874448593,-1.9666267558386608,1.0,0
410,,LeosiÃ±eta,43.31229499726448,-1.9370843946482303,1.0,0
531,,Jai Alai 17,43.32008917648822,-1.9681501027111263,1.0,0
411,,Altzako Anbulatorioa,43.31659977657983,-1.9323232214065145,1.0,0
532,,Tolaregoia 42,43.31620281729693,-1.965552190102675,1.0,0
533,,Zubiaurre 40,43.32014156201337,-1.9570498263393896,1.0,0
413,,Larratxo 98,43.31658881663152,-1.932113770521845,1.0,0
534,,Txurkoene 3,43.3173803176545,-1.965322567495589,1.0,0
535,,Virgen del Carmen 46,43.318287346563785,-1.9680449416999712,1.0,0
536,,Errondo 3,43.31057251938458,-1.9813200424192208,1.0,0
537,,LeosiÃ±eta II,43.31204836480527,-1.9367064319642424,1.0,0
416,,Urgull-Cementerio Ingleses,43.32529419163672,-1.99039833141528,1.0,0
417,,Errondo Anoeta,43.30216303853923,-1.9753452809595469,1.0,0
538,,Pasai San Pedro 49,43.32243052790768,-1.937684676010622,1.0,0
539,,Pasai San Pedro 25,43.32205522290819,-1.9399358287155588,1.0,0
418,,Zorroaga-Anoeta,43.30333154307967,-1.9731063875277717,1.0,0
540,,Larratxo 11,43.316450473149416,-1.9395030028154665,1.0,0
541,,Larratxo 20,43.31438105114767,-1.939674639655288,1.0,0
420,,Errondo -J.M. Salaberria,43.30260709050409,-1.9807009865512344,1.0,0
300,,Duque de Baena,43.3130572649287,-1.9965445974410412,1.0,0
421,,Zubiaurre Puente,43.31989750649304,-1.9520222989068383,1.0,0
542,,Eskalantegi 15,43.3180348660162,-1.9192629347324488,1.0,0
301,,Sanserreka,43.31133737688873,-1.9934655144531623,1.0,0
543,,Eskalantegi 58,43.315887166495145,-1.9187707349818064,1.0,0
302,,Sanserreka-Polikiroldegia,43.30933977014576,-1.9936217867361308,1.0,0
423,,Katalina Eleizegi 1,43.30632235841888,-1.987395669905456,1.0,0
544,,Molinao Plaza II,43.3127829569123,-1.9209220717874516,1.0,0
424,,Oriamendi 112,43.28703789207711,-1.9877403040130497,1.0,0
545,,Darieta 141,43.317574710023706,-1.9210715814990624,1.0,0
303,,Rio Deba Ibaia 2,43.31673849561471,-1.9690330490850887,1.0,0
425,,Mikeletegi 12,43.288075857984005,-1.9819297861867595,1.0,0
304,,Melodi P. Baroja,43.30786571773388,-1.99085948811473,1.0,0
546,,Darieta 13,43.31940770952296,-1.922568373659349,1.0,0
426,,Poliklinika II,43.29024461553284,-1.9797611050373167,1.0,0
305,,Gipuzkoa Pza 2,43.32151586121024,-1.9826664875158173,1.0,0
547,,Darieta Polideportivo,43.31870622837901,-1.9264901268838572,1.0,0
427,,Poliklinika I,43.290625823952624,-1.9800998797873632,1.0,0
306,,Lazkano 3,43.31079318308295,-1.988936772194173,1.0,0
548,,Txingurri  29,43.31633210724843,-1.9413055158667247,1.0,0
307,,Izaburu,43.30967134266163,-1.9913968175498304,1.0,0
428,,Intxaurdegi,43.28721893642297,-1.98784823559076,1.0,0
549,,Txingurri 7,43.3181093851987,-1.938758879114718,1.0,0
429,,Katxola,43.29132317002227,-1.9907016300811056,1.0,0
308,,Matia Zentroa,43.30393017312284,-2.0010470199496067,1.0,0
309,,Lugaritz 27,43.302852391342434,-1.9993015980070936,1.0,0
550,,Pasai San Pedro-Bidebieta,43.321901029797786,-1.939815179882301,1.0,0
430,,Oriamendi,43.29953035190292,-1.9911699667058904,1.0,0
551,,Euskadi Etorbidea 5,43.3223182537162,-1.9372303081724191,1.0,0
310,,Lugaritz Euskotren II,43.30216301062074,-2.001815698953289,1.0,0
431,,Gurutze Alde II,43.30676471504256,-1.9998045928343215,1.0,0
552,,Azkuene 35,43.325805412330965,-1.9384645583121949,1.0,0
432,,Aiete 93,43.30197213085844,-1.990328204815084,1.0,0
311,,Uniber T.70 II,43.3070410276158,-2.008788642962513,1.0,0
553,,Azkuene Plaza,43.324475110790985,-1.9377477134717067,1.0,0
554,,Marrus,43.30682965491138,-1.9429500602328664,1.0,0
433,,Lugaritz - Eusko Tren,43.30216910842148,-2.001482715379937,1.0,0
313,,Lugaritz-Geriatrico,43.30268936397054,-1.999193310048136,1.0,0
434,,Oriamendi Etxadi,43.30249996901661,-1.9909605816693177,1.0,0
555,,Zorroagako Gaina 76,43.29855741155673,-1.9659130507412148,1.0,0
435,,Oriamendi 20,43.29883049968636,-1.991452762411712,1.0,0
314,,Lazkano,43.30935424895324,-1.990156682921398,1.0,0
556,,Zorroagako Gaina 134,43.294694848232446,-1.9649553260111297,1.0,0
315,,Melodi PB.55,43.30829658412024,-1.991727808210167,1.0,0
436,,Oriamendi 68,43.29313010376264,-1.991386723132761,1.0,0
557,,Illarra,43.30352702296464,-2.0189681034427056,1.0,0
316,,Sanserreka 33,43.30935560641432,-1.993374915812918,1.0,0
437,,Katalina Eleizegi 25,43.30340327774254,-1.9872098696210825,1.0,0
558,,Askatasuna/Libertad 3,43.320417252976505,-1.9796263065170083,1.0,0
317,,Sanserreka 25,43.31161712443159,-1.9935348829967467,1.0,0
559,,Paseo Salamanca,43.32433261585713,-1.981472463506038,1.0,0
318,,Duque de Baena 1,43.31316616774384,-1.9966414554736809,1.0,0
439,,Oriamendi 86,43.29022272042166,-1.990485623224753,1.0,0
319,,Mirakontxa 42,43.31420338736724,-1.995810512834827,1.0,0
560,,FotogrÃ¡fica,43.32587232681813,-1.9845055232663629,1.0,0
440,,Oriamendi Pakea,43.29488192812644,-1.9919494904980504,1.0,0
561,,Paseo Nuevo I,43.324860688895406,-1.9933162449508488,1.0,0
320,,Mirakontxa 28,43.31431326962675,-1.991924286045575,1.0,0
441,,Alto Molinao,43.31255091297665,-1.9240089553114088,1.0,0
562,,Urgull,43.32409082587284,-1.9907635987647172,1.0,0
200,,Madrid 17,43.30358806456102,-1.9756049193014795,1.0,0
321,,Askatasuna 20,43.31984898030715,-1.9815350378041177,1.0,0
563,,Paseo Nuevo II,43.32486773789349,-1.9930941234019708,1.0,0
201,,Madrid 3,43.30530542246518,-1.977339220004603,1.0,0
322,,Gantxegi,43.30899750538384,-1.9966853756287803,1.0,0
443,,Ubarburu 32,43.301042847755134,-1.94620650115792,1.0,0
564,,San Telmo,43.32583751897988,-1.984641775100608,1.0,0
202,,SanchoSabio 33,43.308359281393685,-1.9795074668039343,1.0,0
323,,Portuene 20 I,43.30991885210501,-1.997015475609173,1.0,0
444,,Ubarburu 44,43.299675574772806,-1.9444054976730467,1.0,0
565,,Aldamar-Bretxa,43.32387521297292,-1.982688780708024,1.0,0
203,,P.Bizkaia-PuenteMundaiz,43.31082293374771,-1.9791086510797684,1.0,0
324,,Portuene 49,43.30933345716774,-1.995977011925855,1.0,0
445,,Ubarburu 54,43.296374567713485,-1.9428476588317103,1.0,0
566,,Pinos 7,43.30605906628971,-1.998398234902177,1.0,0
204,,Gernikako Arbola,43.31390462562128,-1.9793530145106488,1.0,0
325,,Dr. MaraÃ±Ã³n,43.30822186234651,-1.9944910197510173,1.0,0
446,,Ubarburu 55,43.29737982141511,-1.9415234688809304,1.0,0
567,,Gurutze Alde I,43.30513687145557,-2.0000285587645394,1.0,0
205,,Maria Cristina pte./zubia,43.317772532535365,-1.9789059721212403,1.0,0
326,,Muntomar,43.308197632915416,-1.996858826629581,1.0,0
447,,Ubarburu 37,43.29967193346536,-1.9440110483106368,1.0,0
568,,Lazkano 57 II,43.308306622102094,-1.9898041204651116,1.0,0
206,,Groseko Ambulatorioa,43.32544019613716,-1.970415267882463,1.0,0
327,,Pinu bidea,43.30720660766109,-1.9978245391189868,1.0,0
569,,Aieteko Jauregia II,43.30453817014753,-1.9923447606533085,1.0,0
448,,Ubarburu 13,43.30260618337164,-1.948768608373869,1.0,0
328,,Gurutze H.153,43.30783824452201,-2.000033592381267,1.0,0
207,,Askatasuna 18,43.319972607120256,-1.9812616548502615,1.0,0
208,,Urbieta 6,43.318347423871415,-1.9838045983927168,1.0,0
329,,Itxas Aurre,43.308780497434434,-2.000696314260376,1.0,0
209,,P.M.Collado,43.3069426292624,-1.9811957173093997,1.0,0
570,,Puente Mundaiz,43.31226152636176,-1.977863793422243,1.0,0
571,,Arriola 87,43.31204806527967,-2.016155206972825,1.0,0
330,,Apaizgaitegia/Seminario H.82,43.31078023459624,-2.002846094712362,1.0,0
572,,Arriola 32 igerilekuak,43.31144039687046,-2.015647111998484,1.0,0
452,,Okendo 18,43.32144603365012,-1.980891711742958,1.0,0
331,,Avanco,43.30856066589406,-2.00439901264047,1.0,0
210,,Salaberria 27,43.30534391998128,-1.98064292513089,1.0,0
573,,Pakea,43.3111102041905,-2.0139014621332656,1.0,0
332,,Apaizgaitegia/Seminario,43.31069684115661,-2.0025761816181262,1.0,0
211,,Mutualidades,43.30285489133277,-1.98021600875336,1.0,0
574,,Arriola 15,43.310193501255256,-2.012017363202886,1.0,0
333,,Itxas Aurre H.112,43.30889872308519,-2.000830011500963,1.0,0
212,,Errondo Barkaiztegi,43.30552266143621,-1.9825140529953769,1.0,0
334,,Gurutze H.128,43.30744539488569,-1.99938653785326,1.0,0
213,,Lizarra,43.314858799902176,-1.9853918550692569,1.0,0
576,,Julianategi-Universidad,43.30992132593316,-2.010739389943507,1.0,0
335,,Begi Urdinak,43.30729426204609,-1.9975518374848944,1.0,0
214,,Errondo,43.30596381295965,-1.982506694257841,1.0,0
577,,Tontorgoxo,43.31066102684159,-2.011935804964991,1.0,0
336,,Donosti Zahar,43.30892615171315,-1.9957371090307403,1.0,0
215,,Alto Errondo 32,43.300724444529735,-1.9796105266941968,1.0,0
578,,Arriola 26,43.3111924019732,-2.014035772494458,1.0,0
337,,Portuene 20 II,43.30991798709989,-1.996916845072434,1.0,0
216,,Azkaratene,43.3010157066616,-1.987052245726804,1.0,0
579,,Arriola 32,43.31156792679822,-2.0158176866439046,1.0,0
458,,Arroka plaza,43.31380252925499,-1.98305413649977,1.0,0
338,,Portuene 21,43.309295690037246,-1.9968037750896592,1.0,0
459,,San Roque 2,43.31334606249282,-1.9853923616821876,1.0,0
217,,Alto Miracruz II,43.32127599543252,-1.9481877424243184,1.0,0
339,,P.Baroja 4,43.31385627159899,-1.999355338399598,1.0,0
218,,Bera Bera 133,43.30321851158588,-1.9927980824663187,1.0,0
219,,Bera Bera 89,43.30498149619061,-1.9946307422731937,1.0,0
580,,Arriola 89,43.31201152225688,-2.016094141392549,1.0,0
460,,Aldapa 24,43.31556598866424,-1.9688185706536836,1.0,0
581,,Montesol Eguzkimendi,43.31944952767503,-1.9444331719109549,1.0,0
340,,P.Baroja 10,43.31132379663539,-1.99601823054764,1.0,0
582,,Ibaeta Diario Vasco,43.30381468879053,-2.0084711876144934,1.0,0
461,,San Roque 18,43.31263427156249,-1.9853425484820235,1.0,0
341,,Larramendi,43.31508229179848,-1.9821695792267853,1.0,0
220,,Bera Bera 85,43.30444822077798,-1.9964519662449205,1.0,0
462,,Beloka 1,43.31225048735124,-1.9867423442309844,1.0,0
100,,Frantziskotarrak,43.317447149165424,-1.974743166886847,1.0,0
221,,Bera Bera 57,43.30215843985656,-1.9982033687978584,1.0,0
463,,Beloka 15,43.31335688631756,-1.9886476417484893,1.0,0
584,,Morlans 51,43.30646416977224,-1.98815776916472,1.0,0
101,,Duque de Mandas 3,43.32007062137679,-1.97409475064362,1.0,0
222,,Bera Bera 47,43.30150830457147,-1.996968826314844,1.0,0
585,,Tranbia 1,43.2973108190125,-1.9545800550804449,1.0,0
464,,Beloka 23,43.31196260522438,-1.9888064055074084,1.0,0
343,,Atotxa Erreka 26,43.29163218421662,-2.001285325756599,1.0,0
102,,Boulevard 3,43.32264926034179,-1.9825365749504784,1.0,0
344,,Pio Baroja 15,43.31126782954646,-1.9957971962794436,1.0,0
223,,Bera Bera 31,43.30055098062689,-1.9945927974678872,1.0,0
586,,Campo futbol zelaia,43.29735515811008,-1.954505327114407,1.0,0
465,,Lazkano 2,43.31041712337221,-1.9891772897609248,1.0,0
103,,Askatasuna  21,43.319493248839976,-1.982034281389468,1.0,0
345,,P. Baroja 5,43.31405423249522,-1.9993397585698809,1.0,0
224,,Bera Bera 2,43.301540223166604,-1.9913833094693545,1.0,0
587,,Txingurri 40,43.31566896949559,-1.941649986765848,1.0,0
466,,Txingurri,43.31813696611008,-1.9388200602689252,1.0,0
225,,Askatasuna 31,43.3190288085008,-1.9834725983165016,1.0,0
104,,Pinudi/Pinares M.16,43.3219491155708,-1.974716789578428,1.0,0
588,,Arzak Enea,43.2832947077256,-2.0013601114072546,1.0,0
467,,Lazkano 57,43.30832560831565,-1.989914778447732,1.0,0
105,,Euskal Herria/Vasconia,43.32225643410722,-1.9718380120512933,1.0,0
226,,Aiete 53,43.307357884295286,-1.9924954602277825,1.0,0
347,,Pio XII,43.3074269201832,-1.9799669494057208,1.0,0
468,,Lazkano 41,43.30949818981839,-1.990141969107815,1.0,0
589,,Aldunaene,43.308616967839285,-1.9760999848319336,1.0,0
106,,Jai Alai,43.32199691400236,-1.967020173331522,1.0,0
227,,Iza,43.30998264528645,-1.9909600981548587,1.0,0
348,,Melodi Lugaritz,43.30726476553586,-1.9901049672106528,1.0,0
469,,San Roque 65,43.31158857141123,-1.988257715447498,1.0,0
107,,Erlojua/Reloj,43.321647134661,-1.9602183060697256,1.0,0
228,,Aiete 1,43.31077238420456,-1.989639970681809,1.0,0
349,,Unibertsitatea Tol.95,43.30735335983749,-2.008462985275396,1.0,0
108,,Intxaurrondo Zaharra,43.32135839249544,-1.9532428092932288,1.0,0
229,,Marianistak,43.3144325122573,-1.987076032708528,1.0,0
109,,Mirakruz Gaina /Alto Miracruz,43.32124661805608,-1.949890186114432,1.0,0
590,,Mikeletegi-Miramon,43.28798164928308,-1.9824737085421804,1.0,0
591,,Cocheras Mons,43.31888634995112,-1.9606106973339663,1.0,0
470,,San Roque 58,43.31179578092007,-1.9852208585692213,1.0,0
350,,Zumalakarregi 9,43.3147709595319,-2.0020162810837414,1.0,0
471,,San Roque 13,43.31208600951263,-1.9834280297116504,1.0,0
592,,Atotxa Erreka 46,43.29236981084924,-1.9991406749554288,1.0,0
351,,Zumalakarregi 8,43.31490697478026,-2.0021250394876704,1.0,0
230,,Katalina Eleizegi 2,43.30645773243827,-1.987430412236478,1.0,0
472,,San Roque 7,43.31284938927118,-1.984216831401053,1.0,0
593,,Balleneros 8,43.30577663976056,-1.9746557634125763,1.0,0
110,,Elosegi 111,43.32049319533181,-1.9433668205678012,1.0,0
352,,Melodi Parkea,43.30740696449173,-1.9898930013393876,1.0,0
231,,Katalina Eleizegi 34,43.30479652232606,-1.9879511702595696,1.0,0
594,,Aldakonea Gaina,43.31957940177034,-1.9725367832946936,1.0,0
473,,Plaza Easo,43.31401894105809,-1.982076345192557,1.0,0
111,,Herrera Euskotren,43.3197874423333,-1.938137706316908,1.0,0
595,,Igeldo Pasealekua 72,43.31394769955382,-2.0098602011340363,1.0,0
353,,AÃ±orga Txiki I,43.28943569108166,-1.9982643077460296,1.0,0
232,,Katalina Eleizegi 48,43.30316865106745,-1.9871521188041497,1.0,0
112,,Herrera 20,43.319430206754014,-1.9365160375037296,1.0,0
596,,Andoain 17,43.300540115371184,-1.9913135427566595,1.0,0
354,,AÃ±orga I,43.285131854259824,-2.0003563351482203,1.0,0
233,,Sierra Aralar,43.31091048373681,-1.9658022628056744,1.0,0
475,,Nazaret,43.32009426380508,-1.9717141517186612,1.0,0
113,,Herrera 42,43.31986122426824,-1.933487034002994,1.0,0
597,,Pagola,43.299918921649066,-1.9933703560884184,1.0,0
355,,Karmengo Ama,43.2808030321611,-2.0047531915872936,1.0,0
234,,Alto Errondo 107,43.30089953956384,-1.9871528046609923,1.0,0
476,,Euskadi Etorbidea-Azoka,43.32282318734007,-1.9334352155939272,1.0,0
114,,Erroteta Behekoa,43.31853692413012,-1.9314876985244247,1.0,0
356,,Errotazar-Amasorrain,43.28004846463178,-2.007033211470558,1.0,0
235,,Alto Errondo 91,43.3009376370785,-1.984341211004964,1.0,0
477,,Ricardo Arrillaga 6,43.32374409011067,-1.9298424238418623,1.0,0
598,,Ilunbe,43.29714896578548,-1.9684888185457572,1.0,0
115,,Santa Barbara,43.3175173005997,-1.9302970197889209,1.0,0
599,,Arzak Enea II,43.28315409933055,-2.001756817588791,1.0,0
236,,Alto Errondo 55,43.30202517148452,-1.9831025346676043,1.0,0
478,,Gran Sol 3,43.32456335512013,-1.9298280409577588,1.0,0
357,,CaserÃ­o Parada,43.32092120520206,-1.9487735056055704,1.0,0
116,,Nerecan,43.31667981847475,-1.9341469481315303,1.0,0
358,,Irubide,43.28026952112683,-2.0169878992228454,1.0,0
237,,Alto Errondo 27,43.30090978380678,-1.980199207777466,1.0,0
479,,Borda Enea 2,43.32544064815783,-1.9321683792091957,1.0,0
117,,San Martzial,43.31411834620732,-1.934660315349878,1.0,0
238,,Boulevard 19,43.322042408616944,-1.9841623321383892,1.0,0
359,,Caserio Parada 28,43.32001728033569,-1.9483944476814752,1.0,0
239,,Zumalakarregi 10,43.31481877211005,-2.002336119855917,1.0,0
118,,Martillun,43.31284355024705,-1.9360390149259008,1.0,0
119,,Larratxo 46,43.31353596161545,-1.9378766310561653,1.0,0
10,,Loiola 12,43.30872376991668,-1.9669490737623296,1.0,0
11,,Hipika 12,43.30673507921748,-1.9660949998487884,1.0,0
13,,Felisa Martin Bravo 4,43.30394872163172,-1.958707610347185,1.0,0
14,,Rotonda PolÃ­gono 27,43.30194665747436,-1.9524540070915848,1.0,0
15,,Renfe Martutene,43.29901779922953,-1.956128839835344,1.0,0
16,,Ibai Alde,43.29533791652356,-1.9544782524063309,1.0,0
17,,Easo 19,43.317178667062585,-1.984009058265392,1.0,0
18,,Larrun Mendi,43.294459776504254,-1.9539632174525852,1.0,0
19,,Martutene 53,43.29915160701113,-1.9559909379696512,1.0,0
480,,Oiartzun 8,43.32463561077302,-1.9346738605068976,1.0,0
360,,Rotonda Belartza,43.280930686710384,-2.0101246972976896,1.0,0
481,,Ulia 22,43.32557220867651,-1.937592923450492,1.0,0
240,,Antig Anbul,43.31346427816506,-2.00499718096989,1.0,0
361,,Belartza,43.28107376172886,-2.015224832379703,1.0,0
241,,Majisteritza Tol 14,43.31148086735013,-2.008864455650893,1.0,0
120,,Larratxo I,43.31221748323152,-1.9394039824281208,1.0,0
362,,Errekalde,43.27848212146079,-2.0070833338934677,1.0,0
121,,Bianka,43.31337299241245,-1.937780819303375,1.0,0
242,,Unibertsitatea Elhuyar,43.30834683837226,-2.010888230289018,1.0,0
363,,RÃ­o Deba Ibaia 25,43.31608337896847,-1.970277309376586,1.0,0
122,,Lauaizeta 33,43.31302120022304,-1.9357769600532395,1.0,0
364,,AÃ±orga II,43.2856091887163,-1.999337812069044,1.0,0
243,,Elhuyar Plaza,43.30813795278823,-2.0106820036955253,1.0,0
123,,Altza 55,43.31412528162963,-1.9344382284178072,1.0,0
365,,AÃ±orga Txiki II,43.28920726512232,-1.997885938189804,1.0,0
244,,Berio 22,43.30690428032837,-2.015892939046819,1.0,0
124,,Larratxo 94,43.31651500738293,-1.9338538631462208,1.0,0
366,,Garbera,43.308156044729856,-1.948130428720952,1.0,0
245,,Berio 19,43.3071469229893,-2.0147916507417314,1.0,0
487,,Jai Alai  8,43.32067337201346,-1.9680292203286964,1.0,0
125,,Arri Berri,43.31787845959212,-1.9294397624112487,1.0,0
246,,Aspace,43.30527386464307,-2.016868626971904,1.0,0
367,,Otxoki,43.31087014925546,-1.954433968335756,1.0,0
488,,Aldapabide  14,43.320243885418925,-1.9673335275975532,1.0,0
126,,Arria Parkea,43.3185876002755,-1.931129172741141,1.0,0
368,,Baratzategi 2,43.313901772846286,-1.959055586872739,1.0,0
247,,Berio 45,43.30547129890806,-2.0167914666841376,1.0,0
489,,Aldakonea 69,43.31947507902242,-1.9679508431162127,1.0,0
369,,Zarategi 71,43.31632111861851,-1.9538102317569497,1.0,0
127,,Pikabea,43.31922535026619,-1.9338557987722285,1.0,0
248,,Berio 78,43.303413999719794,-2.015246477034196,1.0,0
128,,RENFE Herrera,43.3193793991092,-1.9368622336144337,1.0,0
249,,Portuetxe 2,43.30314941617736,-2.008592963807979,1.0,0
129,,Herrera,43.3198679343207,-1.9390489163621885,1.0,0
20,,Kartzela,43.30206306393362,-1.9573096331577184,1.0,0
21,,Antzieta 31,43.3037597048193,-1.9606958608110128,1.0,0
22,,Txomin Enea,43.30475686947417,-1.96341603008229,1.0,0
23,,Patxillardegi,43.30848590384218,-1.9665338724847488,1.0,0
24,,Loiola-Topo,43.31035977753273,-1.967636541717794,1.0,0
25,,Zurriola,43.32513315782915,-1.975329253724388,1.0,0
26,,Madrid 19,43.30344257983388,-1.9754470817219305,1.0,0
27,,Madrid 5,43.30510526010392,-1.9771083130326177,1.0,0
28,,SanchoSabio 35,43.30821501210511,-1.9794852201463289,1.0,0
29,,SanchoSabio11,43.31037059749374,-1.9798807252101465,1.0,0
490,,Aldakonea-Alai Ondo,43.31944551790349,-1.9696655632279303,1.0,0
491,,Konkorrenea-Parrokia,43.31920732249572,-1.9702122171764371,1.0,0
370,,Caserio Parada 70,43.320173500108965,-1.9458018948690612,1.0,0
250,,Portuetxe 9,43.30307578779711,-2.0084092221662813,1.0,0
371,,Berio 91,43.30333580270075,-2.0114010076803663,1.0,0
492,,Konkorrenea 23,43.31890552988817,-1.971697203389708,1.0,0
130,,Gaiztarro,43.32078379601846,-1.9436331051370688,1.0,0
251,,Portuetxe 10,43.302046369681285,-2.010152015375318,1.0,0
493,,Aldakonea Zuhaizti,43.32080555208002,-1.9737123998154864,1.0,0
494,,Euskadi Plaza,43.32113413530652,-1.977221733280708,1.0,0
131,,Mirakruz Gaina/Alto Miracruz,43.321402498815175,-1.9501958237426509,1.0,0
373,,Berio 118,43.303217162918806,-2.011217991653812,1.0,0
252,,Portuetxe 21,43.30191078860504,-2.0100925703272736,1.0,0
495,,Askatasuna19,43.31976586609712,-1.9813021071350472,1.0,0
132,,Ulia,43.3215045843995,-1.9534746248075887,1.0,0
374,,Polloe,43.318459007121966,-1.9651192774197097,1.0,0
253,,Portuetxe 18,43.30206048672896,-2.012827181473408,1.0,0
133,,Toki Eder,43.321782209573485,-1.959229363324452,1.0,0
375,,Aitzgorri,43.30895089962061,-2.003714470545748,1.0,0
496,,Errondo-Morlans,43.30778628374821,-1.9818967747527156,1.0,0
254,,Portuetxe 35,43.30196864591416,-2.0126190747381445,1.0,0
134,,Jesuitak,43.323305693086205,-1.967367994994401,1.0,0
497,,Alto Errondo 49,43.30194929349632,-1.9836832615718776,1.0,0
376,,Baratzategi 3,43.31407159558396,-1.9589170422546636,1.0,0
255,,Errotazar,43.301486800967325,-2.0162638971696203,1.0,0
135,,Mariaren Bihotza,43.32593880362474,-1.9707891946612155,1.0,0
498,,Parking Loiola,43.31145537714934,-1.9693073287983904,1.0,0
377,,Otxoki Parkea,43.31071777441901,-1.954510565155456,1.0,0
256,,Portuetxe 51,43.30136954741205,-2.0162411301199223,1.0,0
136,,Kursaal,43.32475916558602,-1.9768032379950484,1.0,0
499,,Ubarburu 14,43.30247657545824,-1.9493626376022173,1.0,0
257,,Igara,43.301621459061565,-2.0214645312557944,1.0,0
378,,Aldapabide 5,43.32097313053348,-1.967321175246779,1.0,0
137,,Escalerillas,43.32124334719368,-1.9310702783021352,1.0,0
258,,Berio 73,43.302894234815696,-2.014490458190364,1.0,0
138,,Puerto Pasajes Escalerillas,43.32135576088013,-1.9315369572126733,1.0,0
259,,Berio 63,43.303687385107146,-2.015624273370181,1.0,0
139,,Casares 57,43.32114671580084,-1.923647596758812,1.0,0
30,,Easo Plaza,43.31378047044341,-1.98158707097187,1.0,0
32,,Okendo 11,43.32064848835008,-1.980313071054246,1.0,0
34,,Boulevard 17,43.32214825459506,-1.983913907076136,1.0,0
35,,Urbieta 20,43.31726893369526,-1.983020987843707,1.0,0
36,,Zubieta-San MartÃ­n,43.3154969515851,-1.9872926535856104,1.0,0
37,,Okendo 5,43.32091111623644,-1.980481337847941,1.0,0
38,,Loiola Parking II,43.31124797375026,-1.9692738414548965,1.0,0
39,,Zubieta Plaza,43.31574838300048,-1.9872144871488624,1.0,0
380,,Katalina Eleizegi 13,43.30472340651912,-1.987829087891898,1.0,0
260,,Begiristain I,43.29997459365579,-1.9682931032832325,1.0,0
140,,Buenavista Casares,43.32095667247613,-1.922590330327491,1.0,0
261,,Begiristain II,43.300916912147024,-1.9679442911073484,1.0,0
141,,Casares 69,43.320169534928695,-1.9260203854641595,1.0,0
262,,Lorearte,43.2959708804683,-1.966659568797952,1.0,0
383,,Molinao Plaza I,43.31259459387034,-1.9209993915725945,1.0,0
142,,Darieta,43.32035709052807,-1.9258567565022096,1.0,0
263,,Txiskuene,43.296166943074624,-1.9664343479388224,1.0,0
143,,Casares 42,43.3197380231819,-1.9299374101008064,1.0,0
264,,Donostiako Ospitalea I,43.29356518840999,-1.9684877623397308,1.0,0
144,,Oleta,43.31970709103797,-1.9295186459799567,1.0,0
265,,Donostiako Ospitalea II,43.29315515910267,-1.9689507995917952,1.0,0
145,,Arrizar,43.31843940879117,-1.92876396850772,1.0,0
266,,Ospitalea/Hospital I,43.293080449010745,-1.970653213455303,1.0,0
146,,Aitz Gain,43.3181099402625,-1.9330120466010987,1.0,0
267,,Ospitalea/Hospital II,43.29284248570672,-1.970225777506715,1.0,0
147,,Txirrita 54,43.31749199005758,-1.937240443094279,1.0,0
268,,Onkologikoa,43.29155359047044,-1.974093512093498,1.0,0
269,,Avda Zarauz 122,43.30276251312756,-2.003445666585991,1.0,0
148,,Txirrita 21,43.315475295532615,-1.939211670526149,1.0,0
149,,Txirrita 13,43.31405942989262,-1.938977341195059,1.0,0
40,,Ondarreta,43.315125550871855,-2.0003457050847517,1.0,0
41,,Esklabak,43.31445265467112,-2.002687392179626,1.0,0
42,,Zumalaka.21,43.31345216372284,-2.004639770592496,1.0,0
43,,Majisteritza,43.31169921224482,-2.008084056756131,1.0,0
44,,Unibertsitatea Tol.77,43.307535026144336,-2.00864498381415,1.0,0
45,,Tolosa 111,43.30523839896318,-2.0065122905616497,1.0,0
46,,Amerika Plaza,43.30235051595049,-2.003698978134939,1.0,0
47,,Errotaburu 5,43.3010368066045,-2.0038067336872016,1.0,0
48,,Zuatzu,43.29794453676683,-2.007518691349562,1.0,0
49,,Errotaburu 6,43.3008535363189,-2.004475479537131,1.0,0
270,,Onkologikoa II,43.2916735512516,-1.9734135158822523,1.0,0
150,,Pinudi/ Pinares,43.32188863650815,-1.97500146598808,1.0,0
271,,MiramÃ³n,43.29011361936834,-1.9832517194906336,1.0,0
151,,Zuatzu-Urola,43.296172776141326,-2.00984048429091,1.0,0
273,,Mikeleteak 4,43.313961129368046,-2.000019514095184,1.0,0
394,,Etxadi Parkea,43.30109116595493,-1.9884564770093984,1.0,0
152,,F. Sasiain,43.32168713958285,-1.96164824799843,1.0,0
274,,Mikeleteak 1,43.31375265586176,-1.9998626248737412,1.0,0
395,,Larratxo,43.312034679645045,-1.9391112174154252,1.0,0
153,,Mons 36,43.31650108950895,-1.9557679186416328,1.0,0
275,,Portuene 2,43.31064565494861,-1.9987791498235048,1.0,0
154,,Zarategi 80,43.31594851791463,-1.9544208831216852,1.0,0
276,,Jauregia/Palacio,43.31080857469663,-1.9988751213966245,1.0,0
155,,Txara I,43.31404383073789,-1.9568581690333224,1.0,0
277,,Unibertsitatea Tol.70 I,43.30791227354797,-2.00957594689024,1.0,0
156,,Gipuzkoa  Plaza,43.32148270727212,-1.9819763966193615,1.0,0
278,,Tolosa 112,43.305016317878426,-2.006861136529812,1.0,0
157,,Askatasuna 7,43.320100510761925,-1.9804578952988128,1.0,0
399,,Barcelona 35,43.311047531787565,-1.972014670623304,1.0,0
158,,Elosegi 102,43.3211654380578,-1.9449831066067005,1.0,0
279,,Infierno,43.29888657844741,-2.0009200196713306,1.0,0
159,,Elosegi 283,43.32134606602541,-1.9450416452146289,1.0,0
50,,Tolosa 138,43.30233648197184,-2.0041553826966667,1.0,0
51,,Zarautz 90,43.30526958939856,-2.004921256767726,1.0,0
52,,ResurrecciÃ³n MÂª de Azkue 32,43.30825604965668,-2.00768383448126,1.0,0
53,,R.M. Azkue,43.31058979240417,-2.007867816800331,1.0,0
54,,Benta Berri,43.312319269882686,-2.0048308966412143,1.0,0
55,,Matia,43.31422754331628,-2.001655230516928,1.0,0
56,,Boulevard 15,43.32222709081435,-1.9836659314405387,1.0,0
57,,Iparragirre 8,43.32238822371303,-1.9754863906356988,1.0,0
58,,Zubiaurre 64,43.320040256396496,-1.9538450747504887,1.0,0
59,,Anbulatorio Txomin Enea,43.30505481281148,-1.9625109059218493,1.0,0
160,,Juan XXIII 2,43.32223680158273,-1.942041626936738,1.0,0
281,,Ibaeta - Tolosa,43.303766483918245,-2.0070664247842163,1.0,0
161,,Juan XXIII,43.322031216515,-1.942205524145936,1.0,0
162,,Bidebietako Anbulatorioa,43.323346415187416,-1.9403203745060733,1.0,0
163,,Julio Urkixo 38,43.32367430708254,-1.9416960114981647,1.0,0
284,,Barcelona 15,43.30917378797667,-1.971922948514405,1.0,0
164,,Serapio Mujika 29,43.32308989164,-1.9456897962517667,1.0,0
285,,Urgull-Cementerio Ingleses II,43.32530243263759,-1.9903118589790865,1.0,0
286,,Matigotxotegi,43.3183908081651,-1.963554232704348,1.0,0
165,,Ategorrieta 65,43.32193480994263,-1.9621496832973675,1.0,0
166,,Ategorrieta 41,43.32214263289944,-1.9672027001203605,1.0,0
287,,Errekalde II,43.2777689602104,-2.009991095273322,1.0,0
288,,Virgen  Carmen 3,43.316549614472514,-1.9720575656821224,1.0,0
167,,Satrustegi,43.31562302859507,-2.001632383236797,1.0,0
168,,Satrustegi II,43.31669758530559,-2.0050800721585857,1.0,0
289,,Igeldo 25,43.3148268529989,-2.00740427107567,1.0,0
169,,Funikularea,43.319130577997946,-2.0063229465990675,1.0,0
60,,Nafarroa 34,43.32383666046528,-1.9683333394940183,1.0,0
61,,ArbÃ³s Musikaria/M. ArbÃ³s Z.10,43.3212618474402,-1.9653923549503367,1.0,0
62,,ArbÃ³s Musikaria/Maestro ArbÃ³s,43.32120403579036,-1.9649740184420976,1.0,0
63,,Renfe / Zubiaurre 27,43.32025017389026,-1.9610684208405025,1.0,0
64,,Renfe Ategorrieta,43.320315474581335,-1.9603273466467117,1.0,0
65,,Zarategi 8,43.31852437988898,-1.958434046092606,1.0,0
66,,Gaztelu,43.31835176919149,-1.956291176025792,1.0,0
67,,Lafont,43.31762565022432,-1.9536891910520635,1.0,0
68,,Basotxiki,43.3171636120237,-1.9514156904362665,1.0,0
69,,Julimasene,43.31737593272411,-1.9470834745292296,1.0,0
290,,Molinao bidea 64,43.31327040038895,-1.9229604347631184,1.0,0
170,,La Sirena,43.314631565563104,-2.007728070222952,1.0,0
291,,Londaitz,43.31402206815874,-1.9895368037368992,1.0,0
171,,Igeldo 81,43.31470802624222,-2.0124004899174173,1.0,0
292,,La Cumbre,43.31061740508504,-1.99044403595591,1.0,0
172,,Kristobal Balenziaga 2,43.31844381585493,-2.016458976392206,1.0,0
293,,Munto Alde,43.308255697692026,-1.9921970339092947,1.0,0
173,,Tximistarri,43.31831393377672,-2.0202100902240003,1.0,0
294,,Munto,43.30704603261131,-1.99287051174444,1.0,0
174,,Kristobal Balenziaga 42,43.31587269124741,-2.02324594635705,1.0,0
295,,Aiteko Jauregia/Palacio Aiete,43.30438533430084,-1.992371944257863,1.0,0
175,,Amezti 2,43.31430542888366,-2.027414430809923,1.0,0
296,,Bera Bera-Etxadi,43.30273839945599,-1.991449803625924,1.0,0
176,,Kamio CB.74,43.31253682534852,-2.0301554864446043,1.0,0
297,,Easo 27,43.31658963240591,-1.9835872551601947,1.0,0
298,,Miraconcha,43.314334752849646,-1.9923185384959088,1.0,0
177,,Kristobal Balenziaga 96,43.31022802243345,-2.0339777162345194,1.0,0
299,,Miramar jauregi/Palacio Mirama,43.31429666569916,-1.9961789211837024,1.0,0
178,,Igeldo Herria,43.30849643625341,-2.0379261828169266,1.0,0
179,,Meteorologikoa PO.44,43.306298519311056,-2.041043318163501,1.0,0
70,,Zubiaurre 117,43.31844436716039,-1.9487052205537465,1.0,0
71,,Zubiaurre 70,43.31977255513563,-1.9511611662537467,1.0,0
72,,Zabaltoki,43.32010643504637,-1.9541892532552667,1.0,0
73,,Zubiaurre 39,43.32022933356775,-1.9577882851482329,1.0,0
74,,Ategorrieta 31,43.32221277831344,-1.9679908285852776,1.0,0
75,,Galtzara Nagusia/ Gran VÃ­a 21,43.32376279286952,-1.9731322783153111,1.0,0
76,,ColÃ³n 17,43.32316661900888,-1.976940968067096,1.0,0
77,,Askatasuna/Libertad 6,43.32050004061395,-1.979822244635024,1.0,0
78,,Elosegi 22,43.321547153930446,-1.9571491095611857,1.0,0
79,,Boulevard 13,43.322314929557145,-1.9834178050405529,1.0,0
180,,Camping,43.30533690073761,-2.0455710983006994,1.0,0
181,,Meteorologikoa PO.47,43.30626944194057,-2.0407971779495786,1.0,0
182,,Igeldo Herria CB.105,43.30895398303056,-2.0355885182238755,1.0,0
183,,Kristobal Balenziaga 93,43.310200075472544,-2.033867182949725,1.0,0
184,,Kamio,43.312349744158325,-2.030392752432392,1.0,0
185,,Amezti,43.31428637389352,-2.0272914198666814,1.0,0
186,,Kristobal Balenziaga 42 II,43.31564866451406,-2.023372852507869,1.0,0
187,,Tximistarri CB.23,43.31825896394039,-2.020099982981296,1.0,0
188,,Kristobal Balenziaga I,43.31793804781852,-2.0162821516389733,1.0,0
189,,Igeldo 57,43.3142924966226,-2.0122469103631637,1.0,0
80,,Askatasuna/ Libertad 15,43.319844916467645,-1.9810787995044232,1.0,0
81,,Epaitegiak/Juzgados,43.31978528873808,-1.9744078666058733,1.0,0
82,,Tabakalera,43.3173050897579,-1.974967533126236,1.0,0
83,,Egia 24,43.316336976244585,-1.9724434389551613,1.0,0
84,,Ametzagaina 14,43.31637491715014,-1.9706546747463864,1.0,0
85,,MarÃ­a Reina,43.31758377485506,-1.9679088640433444,1.0,0
86,,Polloe A.58,43.31814237078753,-1.9659509126500485,1.0,0
87,,Tolaregoia,43.31560802461794,-1.9645017511064204,1.0,0
88,,Beharko,43.31371006511423,-1.960748254790819,1.0,0
89,,Galizia 18,43.3137949933774,-1.9582065450581565,1.0,0
190,,IruÃ±a,43.31443479365831,-2.004771709534227,1.0,0
191,,Zuatzu-UlÃ­a,43.29762020857533,-2.007499310678268,1.0,0
192,,G.VÃ­a-G.Nagusia 27,43.32348037645035,-1.9727670356343177,1.0,0
193,,Estaciones Renfe Bus Geltokiak,43.31796285411386,-1.97702828765806,1.0,0
194,,Bilbo/Bilbao,43.3172051390805,-1.9799020392837257,1.0,0
195,,Ehunurteurrena/Centenario,43.312626204141424,-1.9803855645463668,1.0,0
198,,Madrid 10,43.3047453574724,-1.9771390072567108,1.0,0
199,,Anoeta,43.30279192854407,-1.9751867680781552,1.0,0
90,,Galizia 28,43.31250150469475,-1.955589785210899,1.0,0
91,,Bustintxulo,43.311133110832046,-1.95266615122228,1.0,0
92,,Baratzategi 21,43.312625914704654,-1.9524555467753204,1.0,0
93,,Txara II,43.31403426706996,-1.955810162078006,1.0,0
94,,Elosegi 43,43.321660931500105,-1.9567895073851789,1.0,0
95,,Mons 77,43.31653912773196,-1.9559892418566849,1.0,0
96,,Dbus Kotxerak,43.31847440794049,-1.9618509516933464,1.0,0
97,,Virgen del Carmen 65,43.31890453194687,-1.966591603913776,1.0,0
98,,Virgen Carmen 43,43.31790800102528,-1.9689146165436835,1.0,0
99,,Egia 17,43.316234618679154,-1.9720752078749904,1.0,0
904,,Errondo-Centenario,43.31157032375527,-1.9811307426074949,1.0,0
905,,Zuatzu II,43.29860800128365,-2.0051162067815853,1.0,0
906,,Markotegi Parkea,43.29198755134259,-2.003831193458212,1.0,0
1727,1727.0,"OKENDO KALEA, 18",43.32147359223045,-1.9809529157050936,,0
461,461.0,"URBIETA KALEA, 20",43.3173143876371,-1.9830695580633944,,0
217,217.0,MENDEURRENAREN PLAZA - CENTENARIO,43.312670450057134,-1.9802985067337924,,0
198,198.0,"ANTSO JAKITUNAREN HIRIBIDEA, 26",43.3088035119328,-1.9798452843101344,,0
218,218.0,AITA DONOSTIA PLAZA - ANOETA,43.30279982696628,-1.9750633438817744,,0
258,258.0,TORIBIO ALTZAGA KALEA - ARCCO,43.30494785077449,-1.9736093503855932,,0
736,736.0,"BARCELONA HIRIBIDEA, 28",43.31112645350099,-1.9717790544741125,,0
219,219.0,LOIOLA ZEHARBIDEA - LA SALLE,43.31056351847221,-1.9682619595710784,,0
220,220.0,"LOIOLA ZEHARBIDEA, 12",43.30865952358699,-1.96681452827308,,0
4099,4099.0,AINTZIETA PASEALEKUA - HIPIKA 12,43.30666216324769,-1.9659975963716267,,0
459,459.0,TXOMIN ENEA,43.305100387127695,-1.9625717788457908,,0
222,222.0,"AINTZIETA PASEALEKUA, 31",43.303723468636726,-1.960671819507383,,0
223,223.0,MARTUTENE PASEALEKUA - RENFE,43.29907181739849,-1.956127915620711,,0
516,516.0,"MARTUTENE PASEALEKUA, 67 - FUTBOL ZELAIA",43.2973108190125,-1.9545800550804449,,0
224,224.0,MARTUTENE PASEALEKUA - IBAI ALDE,43.29547666776502,-1.953896474714941,,0
247,247.0,"MARTUTENE PASEALEKUA, 94",43.291864711636336,-1.951801177752983,,0
1702,1702.0,"DONOSTIA IBILBIDEA, 38 - HEZEGUNEA",43.28312625806468,-1.9493875997883845,,0
227,227.0,PELOTARI KALEA - ELIZONDO ETXEA,43.28160768487567,-1.9477745269780176,,0
228,228.0,"KALE NAGUSIA, 3",43.28041928664094,-1.9497546243273884,,0
417,417.0,TRANBIA IBILBIDEA - ERRIBERA KULTURGUNEA,43.27857780830769,-1.952201854336525,,0
229,229.0,"TRANBIA IBILBIDEA, 28 - ERGOBIA",43.27607465912306,-1.954179637311909,,0
4206,4206.0,"TROIA IBILBIDEA, 22",43.2723858818386,-1.9545139167870424,,0
241,241.0,MARTINDEGI BAILARA - BIRIBILGUNEA,43.26924954872155,-1.9561818362274903,,0
234,234.0,"AKERREGI BAILARA, 4",43.26670958825544,-1.9650230498177048,,0
1734,1734.0,KARABEL BIRIBILGUNEA,43.265770969359416,-1.9687724198823329,,0
6,6.0,ZIKUÃAGA BAILARA,43.2648139722727,-1.9674948206362344,,0
4101,4101.0,"GARTZIA GOLDARATZ, 1",43.268191897885885,-1.9736357662147663,,0
5036,5036.0,"TXIRRITA KALEA, 8",43.26763983425846,-1.9753331638251517,,0
237,237.0,ZINKOENEA PLAZA,43.26788501765895,-1.9735546683327292,,0
239,239.0,"AKERREGI BAILARA, 3",43.266637006002114,-1.964962670444188,,0
240,240.0,"MARTINDEGI BAILARA, 21",43.26979997785049,-1.9553221777513037,,0
242,242.0,TRANBIA IBILBIDEA - ERGOBIA,43.27608129587143,-1.9539207249234576,,0
418,418.0,TRANBIA IBILBIDEA - MUNDARRO ERREKA,43.27836342824769,-1.9523903965039249,,0
1701,1701.0,DONOSTIA IBILBIDEA - LEKUEDER,43.28046265095848,-1.95055497943572,,0
4478,4478.0,DONOSTIA IBILBIDEA - PELOTARI BIRIBILGUNEA,43.28302722469135,-1.9493893041704369,,0
1703,1703.0,"GALTZAUR KALEA, 24",43.28216847640103,-1.945114991417035,,0
1704,1704.0,"GALTZAUR KALEA, 8",43.28390622268429,-1.9470570146719923,,0
515,515.0,"MARTUTENE PASEALEKUA, 141",43.28788778237387,-1.9482086171620585,,0
246,246.0,"MARTUTENE PASEALEKUA, 125",43.29162746965388,-1.95146009973148,,0
249,249.0,"MARTUTENE PASEALEKUA, 89 - LARRUMENDI",43.29535028716149,-1.9538616584273052,,0
517,517.0,MARTUTENE PASEALEKUA - FUTBOL ZELAIA,43.29737395286509,-1.9545913014135263,,0
250,250.0,"MARTUTENE PASEALEKUA, 53 - RENFE",43.29899833049844,-1.955968904016681,,0
251,251.0,"MARTUTENE PASEALEKUA, 17",43.30241867631543,-1.9577967178475053,,0
252,252.0,AINTZIETA PASEALEKUA,43.30374113862316,-1.960634530438736,,0
253,253.0,AINTZIETA PASEALEKUA - LOIOLA RENFE,43.30480423074265,-1.963674145882076,,0
5260,5260.0,ANTZIETA PASEALEKUA - HIPIKA,43.306769642474805,-1.9659341246146576,,0
255,255.0,LOIOLA ZEHARBIDEA - BATXILLARDEGI,43.30866652170013,-1.966592463693142,,0
257,257.0,LOIOLA ZEHARBIDEA - TOPOA,43.30988805743442,-1.9672499479729184,,0
733,733.0,"BARCELONA HIRIBIDEA, 35",43.311228590182616,-1.972122596381683,,0
734,734.0,"BARCELONA HIRIBIDEA, 15",43.30905575077156,-1.97181396445316,,0
4280,4280.0,GREGORIO ORDOÃEZ,43.30584937448069,-1.9737298082239876,,0
735,735.0,"MADRIL HIRIBIDEA, 19",43.30342468411287,-1.975459711561634,,0
259,259.0,"MADRIL HIRIBIDEA, 3",43.30541489231342,-1.9774976705489529,,0
260,260.0,"ANTSO JAKITUNAREN HIRIBIDEA, 33",43.30819722595527,-1.97951017822709,,0
4006,4006.0,GERNIKAKO ARBOLAREN PASEALEKUA,43.313904185482045,-1.979303696287893,,0
4146,4146.0,MARIA CRISTINA ZUBIA,43.31770874044431,-1.978820715272247,,0
2860,2860.0,"BIZKAIA PASEALEKUA, 2 - MUNDAIZ ZUBIA",43.31108457315988,-1.9791659254697471,,0
4479,4479.0,DONOSTIA IBILBIDEA- INDUSTRIALGUNEA,43.28043914627109,-1.9509374469217475,,0
5036,5036.0,"TXIRRITA KALEA, 8",43.26763983425846,-1.9753331638251517,,0
1734,1734.0,KARABEL BIRIBILGUNEA,43.265770969359416,-1.9687724198823329,,0
6,6.0,ZIKUÃAGA BAILARA,43.2648139722727,-1.9674948206362344,,0
9002,9002.0,EPELE,43.26171037418551,-1.9500147066655629,,0
9003,9003.0,FAGOLLAGA,43.248309113210375,-1.951698496250272,,0
9004,9004.0,EREÃOZU,43.24287614418439,-1.940595468761804,,0
9005,9005.0,LATXE,43.23825474179129,-1.9345544377652963,,0
9006,9006.0,PIKOAGA,43.22353640395343,-1.924406208636136,,0
4122,4122.0,PIKOAGA,43.22352716937038,-1.9243817447136595,,0
4121,4121.0,LATXE,43.238191146836485,-1.934493965447245,,0
3991,3991.0,EREÃOZU,43.24288423472419,-1.9404967921613925,,0
3990,3990.0,FAGOLLAGA,43.24832757089949,-1.9517474522713176,,0
3989,3989.0,EPELE,43.261791967226266,-1.950074908640048,,0
5177,5177.0,URBIETA KALEA,43.26751177401454,-1.9771220056673675,,0
1726,1726.0,"OKENDO KALEA, 10",43.32231625947332,-1.9815431516711897,,0
263,263.0,"URBIETA KALEA, 38",43.31614498393866,-1.9821888360458777,,0
552,552.0,ALDAPETA GALTZADA - LONDAITZ,43.313916100481954,-1.989772856294296,,0
265,265.0,AIETE PASEALEKUA - LA CUMBRE,43.31055416567536,-1.990420421342135,,0
564,564.0,AIETE PASEALEKUA - IZABURU,43.309625348525806,-1.9912866033552463,,0
553,553.0,AIETE PASEALEKUA - MUNTO ALDE,43.30816544926345,-1.992173864634313,,0
292,292.0,"AIETE PASEALEKUA, 66 - MUNTO",43.30706295316855,-1.99274693218856,,0
268,268.0,AIETEKO JAUREGIA I,43.30428521379824,-1.9922503035170307,,0
269,269.0,AIETE PASEALEKUA - ETXADI,43.30241752696295,-1.990801667277097,,0
270,270.0,"ORIAMENDI PASEALEKUA, 20",43.298857074268376,-1.9914030096993496,,0
271,271.0,ORIAMENDI PASEALEKUA - PAKEA,43.294756861894655,-1.99206250430933,,0
272,272.0,"ORIAMENDI PASEALEKUA, 86",43.29094427685017,-1.990621608868104,,0
273,273.0,"ORIAMENDI PASEALEKUA, 112",43.287027907218736,-1.9876295359005345,,0
274,274.0,ORIAMENDI PASEALEKUA - GOIAZTXIKI,43.28509665327375,-1.9871438916926896,,0
275,275.0,"ORIAMENDI PASEALEKUA, 164 - BENTATXIKI",43.28307441285856,-1.9896055026898196,,0
276,276.0,"JAUREGI BAILARA, 78",43.27749636303169,-1.98708511609004,,0
277,277.0,SORGINTXULO AUZOA,43.272299921385546,-1.9839426857253648,,0
278,278.0,"MARIELUTS AUZOA, 6",43.27030730624491,-1.980611769602188,,0
2501,2501.0,"ANTZIOLA AUZOA, 17",43.27150321320363,-1.9763897228517564,,0
2516,2516.0,ARGARAIN ANTZIOLA 2,43.26961185100416,-1.9753370469472469,,0
5178,5178.0,"TXANTXILLA AUZOA, 7",43.2651575991982,-1.9786892999168304,,0
282,282.0,"KAROBIETA AUZOA, 33",43.267846810668736,-1.9813675168117089,,0
283,283.0,"MARIELUTS AUZOA, 48 - ERREPIDEA",43.27057221691833,-1.9830595539032765,,0
284,284.0,"GALARRETA AUZOA, 1",43.27755862116419,-1.9869978148883232,,0
285,285.0,BENTATXIKI,43.28375494977266,-1.9891751783503964,,0
286,286.0,ORIAMENDI PASEALEKUA - GOIAZTXIKI,43.285175389386566,-1.9868837477968109,,0
287,287.0,ORIAMENDI PASEALEKUA - INTXAURDEGI,43.28719203607592,-1.987861007663976,,0
288,288.0,ORIAMENDI PASEALEKUA - KATXOLA,43.29128791878361,-1.9907885008652055,,0
289,289.0,ORIAMENDI PASEALEKUA - PAKEA,43.29484635011794,-1.991999388424477,,0
290,290.0,"ORIAMENDI PASEALEKUA, 11",43.29956647313685,-1.9911816979365344,,0
291,291.0,"AIETE PASEALEKUA, 93",43.30201779938715,-1.9904014229621003,,0
1729,1729.0,AIETEKO JAUREGIA II,43.30435713014786,-1.9922367859730348,,0
293,293.0,"AIETE PASEALEKUA, 53 - MUNTO",43.307277725011176,-1.9925954247752653,,0
563,563.0,"AIETE PASEALEKUA, 017 - IZA",43.30998340666592,-1.9910463998079004,,0
295,295.0,"AIETE PASEALEKUA, 3 - LA CUMBRE",43.31084538923987,-1.9897497382525344,,0
296,296.0,ALDAPETA GALTZADA - MARIANISTAK,43.31446885221917,-1.9871124236069693,,0
3750,3750.0,"EASO KALEA, 9",43.31753219662991,-1.9842744743113945,,0
322,322.0,GOIKO PLAZA - SAN MARTIN ELIZA,43.2199540485036,-2.020814022300965,,0
323,323.0,AMA KANDIDA HIRIBIDEA,43.22315712652107,-2.0226220320341097,,0
1720,1720.0,AMA KANDIDA HIRIBIDEA - KALETXIKI,43.221994513596265,-2.017247573138821,,0
326,326.0,"GUDARIEN HIRIBIDEA, 2 - MARTIN UGALDE PARKEA",43.22293689988352,-2.014794450580196,,0
327,327.0,"GUDARIEN HIRIBIDEA, 47 PAREAN",43.22679890195556,-2.007393208450928,,0
328,328.0,"GUDARIEN HIRIBIDEA, 57 PAREAN",43.22924612215206,-2.004053256049536,,0
329,329.0,ERGOIEN AUZOA - XOXOKA,43.236072509707085,-1.999003485156377,,0
330,330.0,"ERGOIEN AUZOA, 18  -  ERRATZU INDUSTRIALGUNEA",43.23803192657583,-1.9975673736772304,,0
332,332.0,"SAN JOSE OBRERO,6.COLEGIO SALESIANOS (URNIETA)",43.24155942866721,-1.9952555619125691,,0
334,334.0,IDIAZABAL KALEA - ERDIGUNEA,43.247283013076,-1.9928333903080528,,0
335,335.0,"IDIAZABAL KALEA, 3 - ANBULATEGIA",43.24970053005602,-1.991278385263064,,0
336,336.0,OZTARAN AUZOA - LANGARDA,43.25561092093696,-1.9865732821008872,,0
337,337.0,SANTA BARBARA BAILARA - HILERRIA,43.26185026836962,-1.9793975991735329,,0
4102,4102.0,IZPIZUA KALEA - ARATZ IKASTETXEA,43.265060104533845,-1.9788634314046127,,0
280,280.0,ELKANO KALEA - ATSEGINDEGI PLAZA,43.267013185308585,-1.9767483756016813,,0
338,338.0,GALARRETA - FRONTOIA,43.27734215990623,-1.9879750029918704,,0
339,339.0,"JAUREGI BAILARA, 67 - LORETOKI",43.27808703277386,-1.994839539330683,,0
4872,4872.0,"JAUREGI BAILARA, 66 - CHILLIDA LEKU",43.277297423282704,-1.9992645315955095,,0
340,340.0,GASOLINERA ERREKALDE,43.27780993940718,-2.00124031297464,,0
341,341.0,"AVDA. ERREKALDE,21 (DONOSTIA)",43.278668953304646,-2.00475100605656,,0
342,342.0,"AÃORGA HIRIBIDEA, 59 - AÃORGA II",43.285715501437,-1.9991388579819016,,0
343,343.0,AÃORGA HIRIBIDEA - AÃORGA TXIKI II,43.28948506717431,-1.9977334593098717,,0
202,202.0,TOLOSA HIRIBIDEA - AMERIKA PLAZA,43.302278275927534,-2.0036754998067003,,0
377,377.0,TOLOSA HIRIBIDEA - LOREA,43.30502082378884,-2.006343219664006,,0
203,203.0,"TOLOSA HIRIBIDEA, 77 - UNIBERTSITATEAK",43.30718187223431,-2.008416452806431,,0
4038,4038.0,"TOLOSA HIRIBIDEA, 13 - MAGISTERITZA",43.31227500195036,-2.0069895569693665,,0
494,494.0,AVDA. ZUMALAKARREGI FRENTE HOTEL CODINA (DONOSTIA),43.31351475647856,-2.0045894236356148,,0
380,380.0,"ZUMALAKARREGI HIRIBIDEA, 11 - ESKLABAK",43.31493097142933,-2.001779361710048,,0
348,348.0,"SAN MARTIN KALEA, 57",43.31551353831907,-1.9871320656913336,,0
297,297.0,MIRAKONTXA PASEALEKUA-LA PERLA,43.315255121962736,-1.988455847095309,,0
298,298.0,"ZUMALAKARREGI HIRIBIDEA, 4",43.31510095467928,-2.001653262615529,,0
299,299.0,"AVDA. ZUMALAKARREGI,24 (DONOSTIA)",43.313401685224775,-2.00504752746889,,0
346,346.0,TOLOSA HIRIBIDEA - MAGISTERITZA,43.31129511264319,-2.0092497316713365,,0
421,421.0,"TOLOSA HIRIBIDEA, 70- UNIBERTSITATEA",43.3070494965334,-2.0087268552480144,,0
205,205.0,TOLOSA HIRIBIDEA 138,43.30223798389832,-2.0042186357836123,,0
301,301.0,"CAMINO DE ZUBIBERRI, CASA ORAMIL (DONOSTIA)",43.298894935511406,-2.0008459126188383,,0
302,302.0,AÃORGA HIRIBIDEA - AÃORGA TXIKI I,43.2894622687752,-1.998214565680736,,0
303,303.0,"AÃORGA HIRIBIDEA, 36 - AÃORGA I",43.28530054458607,-2.000082408956055,,0
304,304.0,"ERREKALDE HIRIBIDEA, 21",43.278650732458985,-2.0047266545081777,,0
305,305.0,CHILLIDA LEKU - HERNANIRUNTZ,43.2773004415363,-1.9996095542775048,,0
306,306.0,"JAUREGI BAILARA, 75",43.27782692234919,-1.9918860349389276,,0
307,307.0,GALARRETA - PARKE TEKNOLOGIKOA,43.27697156097649,-1.9867980475984144,,0
308,308.0,"SANTA BARBARA BAILARA, 30",43.26180613193989,-1.979496903508562,,0
309,309.0,OZTARAN AUZOA,43.25533771367427,-1.987243070026644,,0
310,310.0,"IDIAZABAL KALEA, 12 - ANBULATEGIA",43.25003093272438,-1.9909649695387464,,0
311,311.0,"IDIAZABAL KALEA, 42 - ERDIGUNEA",43.247265440424,-1.992882951643583,,0
1722,1722.0,"IDIAZABAL KALEA, 56 - ZELAIALDEA",43.245333977115465,-1.9933951591151813,,0
1721,1721.0,SALESIANOS,43.24244825982628,-1.9949576634824595,,0
316,316.0,ERGOIEN AUZOA - ERRATZU INDUSTRIALGUNEA,43.23809473342184,-1.9975417117704748,,0
317,317.0,"ERGOIEN AUZOA, 20 - XOXOKA",43.23612674471168,-1.9990272287187696,,0
318,318.0,"GUDARIEN HIRIBIDEA, 57",43.229810004303495,-2.003662326458775,,0
4124,4124.0,"GUDARIEN HIRIBIDEA, 47",43.2263652162836,-2.0082622077547314,,0
319,319.0,"GUDARIEN ETOR BIDEA, 35",43.22296348566985,-2.014744770210166,,0
325,325.0,"AMA KANDIDA HIRIBIDEA, 23 - KALETXIKI",43.222199564519975,-2.0180569307076768,,0
321,321.0,"AMA KANDIDA HIRIBIDEA, 11",43.22315512762473,-2.022388115164575,,0
1725,1725.0,"MIKELETEGI PASEALEKUA, 12",43.28806817119829,-1.9820778285104763,,0
349,349.0,MIRAMON PASEALEKUA -POLIKLINIKA II,43.29055127092376,-1.979817612103372,,0
1781,1781.0,"BEGIRISTAIN DOKTOREA, 121 - ONKOLOGIKOA",43.29165665127942,-1.9735370691533445,,0
350,350.0,"BEGIRISTAIN DOKTOREA, 115 - OSPITALEA",43.29288894363797,-1.970385246458631,,0
351,351.0,BEGIRISTAIN DOKTOREA - OSPITALEA II,43.29307834114721,-1.970419032491332,,0
3940,3940.0,"BEGIRISTAIN DOKTOREA, 218 - ONKOLOGIKOA",43.29142031278497,-1.9742929821532536,,0
3943,3943.0,MIRAMON PASEALEKUA - POLIKLINIKA I,43.29058970160965,-1.9800881567573825,,0
3944,3944.0,MIKELETEGI - MIRAMON,43.28808617743621,-1.98207752821138,,0
1403,,"Triburcio Anitua, 25",43.181503,-2.486427,8.0,0
1408,,Unibertsitatea,43.18016462742822,-2.4881597303328973,8.0,0
997,,Otaola,43.18147475702142,-2.4831407331583817,8.0,0
1410,,Polikiroldegia-eibar,43.1823647144619,-2.478838788942222,8.0,0
1411,,Ipurua,43.181916,-2.474927,8.0,0
1412,,Sostoatarren,43.1821878129263,-2.473635304341079,8.0,0
1416,,Ubitxa,43.181384,-2.471794,8.0,0
6018,,San Kristobal,43.180718,-2.472495,8.0,0
6131,,Ubitxa 2,43.18209091011134,-2.4721472415894388,8.0,0
850,,Untzaga,43.184046372026586,-2.473039120268249,8.0,0
1739,,Bidebarrie,43.18506268165248,-2.468306926336117,8.0,0
6019,,Urtzaile,43.18528596191168,-2.4659792375056457,8.0,0
1419,,AgiÃ±azpi,43.186532164327325,-2.4628919211720084,8.0,0
1400,,Barrena,43.18917527147676,-2.458167722697549,8.0,0
1000,,Azitain,43.189816624484976,-2.454802383116163,8.0,0
1658,,Iparraguirre,43.188152101496655,-2.458878223011252,8.0,0
6015,,Saratsuegi,43.18605651898492,-2.457506188612738,8.0,0
1714,,Debegesa,43.194975446975256,-2.452738027250156,8.0,0
2667,,Tekniker,43.196112,-2.451947,8.0,0
993,,Azitain,43.18986416640584,-2.4553311385317804,8.0,0
1421,,Barrena,43.189335366445285,-2.457747889830881,8.0,0
851,,Urkizu,43.18694670901121,-2.4629621217929114,8.0,0
4441,,Errebal,43.18574552234806,-2.4679810528177586,8.0,0
1401,,Correos-julian Etxebarria,43.186305975899735,-2.4703881155113403,8.0,0
1124,,"San Juan Kalea, 07",43.185243672436094,-2.4723907989244056,8.0,0
6078,,Torrekua,43.18455042459839,-2.4802845397817466,8.0,0
6021,,Wenceslao Orbea,43.18614071499641,-2.481489315816904,8.0,0
6130,,Ziriako Agirre 2,43.18452316688284,-2.4822167202586125,8.0,0
1405,,Asola Igartza,43.183662089319256,-2.4829623119869626,8.0,0
1402,,"Tiburcio Anitua, 21",43.18193235572553,-2.484773423119506,8.0,0
6016,,Izua,43.20687083356043,-2.473903198054212,8.0,0
6020,,Usartza,43.20854646316364,-2.4682260877461197,8.0,0
4740,,Altzaga,43.210948029625214,-2.461877513220016,8.0,0
1423,,Krabelin,43.210265,-2.454663,8.0,0
1422,,Arrate,43.20603782074341,-2.44808454201023,8.0,0
6132,,"Krabelin, 2",43.210209,-2.454374,8.0,0
6133,,Usartza 2,43.20913885656472,-2.467814699486279,8.0,0
6134,,Izua 2,43.20715783842443,-2.473654532275464,8.0,0
4689,,Hilerria,43.070540289186745,-2.4921558376184585,7.0,0
4666,,Makatzenabarrena,43.069441222715135,-2.485999166444557,7.0,0
2095,,Makatzenagoiena,43.06913672477064,-2.4843681650005904,7.0,0
4667,,Obenerreka 1,43.06759888721032,-2.484810925507817,7.0,0
4668,,Santa Marina,43.06679596002908,-2.4824841017880312,7.0,0
4669,,Galizia,43.06824400408557,-2.480113752155425,7.0,0
4670,,Joan Bengoa 1,43.06922745994461,-2.4785578681601064,7.0,0
4646,,Musakola 1,43.06779936816153,-2.477390898886726,7.0,0
4649,,Legarre,43.06557484096582,-2.483268114404141,7.0,0
4676,,San Frantzisko 2,43.066947966658816,-2.490269524212369,7.0,0
4650,,Maala,43.06578582586125,-2.486127962203163,7.0,0
4651,,Garibai 1,43.0647576753083,-2.489796415205336,7.0,0
4653,,San AndrÃ©s,43.06145960848923,-2.4933360640851108,7.0,0
4691,,San Viator Txiki,43.06195166420192,-2.4946460648333355,7.0,0
4658,,Erguingain A,43.06347432443744,-2.4989319677360102,7.0,0
4659,,Gorostitza,43.06507756459472,-2.4990171618190584,7.0,0
4644,,Eroski,43.07214146267226,-2.471888115484305,7.0,0
4645,,Kiroldegia,43.06961603512843,-2.4768841684122487,7.0,0
4647,,Ospitalea 1,43.063765873310565,-2.4834920890927865,7.0,0
4648,,Elma 1,43.06460412583056,-2.48366927241134,7.0,0
4652,,Etxaluze,43.06248946948482,-2.4920503619814776,7.0,0
3061,,San Josepe,43.05880300982894,-2.491270298439597,7.0,0
4654,,Arimazubi 1,43.062747261777744,-2.495364110527629,7.0,0
4655,,Uribarri 1,43.06213013794407,-2.500428904117097,7.0,0
4656,,Garaia 1,43.06263123682724,-2.503838954274728,7.0,0
4657,,Itxaropena,43.06270910840059,-2.5010382539695755,7.0,0
4976,,Maitena,43.06598938844276,-2.4995501299298857,7.0,0
4660,,Erguingain B,43.06345658417641,-2.4989935180570133,7.0,0
4661,,Erguin 1,43.06289733395904,-2.498777013135901,7.0,0
4662,,Zarugalde 1,43.06391947699704,-2.495722933389237,7.0,0
4663,,Muzibar 1,43.06498266804803,-2.4938228719200137,7.0,0
4664,,San Frantzisko 1,43.06704449870452,-2.489703757720537,7.0,0
4665,,J.l. IÃ±arra 1,43.06841922584354,-2.487014843194073,7.0,0
3063,,Altamira,43.06815550548972,-2.486439783570251,7.0,0
4680,,Udalpe,43.0632110062106,-2.5004938143578257,7.0,0
4681,,Garaia 2,43.062722879171005,-2.504206645896642,7.0,0
4682,,Uribarri 2,43.06201313232367,-2.500442135034044,7.0,0
4683,,Arimazubi 2,43.06261235601067,-2.4954020600320583,7.0,0
4684,,Garibai 2,43.06460432439263,-2.489736279991276,7.0,0
4685,,Elma 2,43.06466604904757,-2.4834231245616496,7.0,0
4686,,Ospitalea 2,43.063777149323975,-2.483995524844252,7.0,0
4687,,Musakola 2,43.06706469674592,-2.4782077447896103,7.0,0
4688,,San Isidro,43.06844224632948,-2.4761940675186973,7.0,0
4671,,Joan Bengoa 2,43.0690821001979,-2.478276607773232,7.0,0
2100,,Santa Teresa 19,43.06909613885578,-2.479381894894074,7.0,0
4672,,Santa Teresa,43.06885720386037,-2.48030508543408,7.0,0
4673,,Agarre,43.06734456934939,-2.482332103156262,7.0,0
4674,,Obenerreka 2,43.06725494524704,-2.484420784448054,7.0,0
4802,,Hondarribia,43.06844779940811,-2.4853565129597803,7.0,0
4675,,J. L. IÃ±arra 2,43.06879840678613,-2.4872327611785248,7.0,0
4677,,Muzibar 2,43.06512608876656,-2.49367431387344,7.0,0
4678,,Zarugalde 2,43.06409918907685,-2.49563549128251,7.0,0
4679,,Erguin 2,43.06285231119619,-2.498777379921494,7.0,0
4449,,San Andres,43.06083437669857,-2.49245700626925,7.0,0
4091,,Suhiltzaileak - Bomberos,43.33050655480701,-1.8243974073087563,9.0,0
4097,,Gabiria,43.32839348470679,-1.8238091179980047,9.0,0
145,,Elatzeta,43.328322768063806,-1.8195674918520743,9.0,0
4088,,Andrearriaga 23,43.32987528176607,-1.817317195378108,9.0,0
45,,Ugalde,43.33098540059368,-1.81408860027299,9.0,0
7075,,Elizatxo 38,43.33272383750003,-1.8054941655083436,9.0,0
4053,,Alai-Txoko,43.33530172060888,-1.7988687108912478,9.0,0
9008,,Gipuzkoa 15 (Ambulatorio),43.33751575627584,-1.795346275099119,9.0,0
1477,,Luis Mariano Plaza - Paseo ColÃ³n,43.34015028748199,-1.7932833054912314,9.0,0
4056,,FermÃ­n CalbetÃ³n,43.339347663823816,-1.7889074092422743,9.0,0
100,,Zabaltza - Ensanche,43.34010698708233,-1.7925933105238414,9.0,0
1287,,ColÃ³n 52 - Topo,43.34080278574313,-1.7962435485932609,9.0,0
2068,,UrruÃ±a Plazatxoa,43.34235679204262,-1.7967433367032637,9.0,0
2096,,Lope De Irigoyen 31,43.34417334320285,-1.796522391584486,9.0,0
4177,,"Aranzaran Plaza, 1",43.34283783266935,-1.7988188231860154,9.0,0
106,,Zubiaurre Kalea 5,43.34175947889074,-1.7990251411444105,9.0,0
1483,,Colon Pas. 43,43.34079612006727,-1.796465742612663,9.0,0
90,,Gipuzkoa Hirib. 6,43.3397593551916,-1.79463573656336,9.0,0
2104,,Gipuzkoa Hirib. 32,43.33754445257328,-1.7955060774843965,9.0,0
4098,,Euskal Herria 9,43.333585818373415,-1.792401813101893,9.0,0
345,,Larreaundi,43.3334470173643,-1.7894934318087543,9.0,0
2610,,Epa Olaberria 8,43.33136274911224,-1.789090778308868,9.0,0
4083,,Olaberria,43.32685993997044,-1.7881811889185362,9.0,0
7153,,San Jose Langilea,43.33354211641967,-1.7882703455901643,9.0,0
7154,,Urdanibia Plaza,43.33763985874358,-1.7857956381058533,9.0,0
4062,,Plaza Euskadi (Irun),43.34295951276981,-1.7596087114974026,9.0,0
4063,,Behobia,43.34240395961765,-1.7648509590612604,9.0,0
4064,,J.T. Labandibar,43.34167422904112,-1.7715030421501083,9.0,0
4065,,Azken Portu,43.341028631525134,-1.776796227111917,9.0,0
4066,,Dunboa Anbulategia,43.33971141648161,-1.7807703771374297,9.0,0
4067,,"Avda. Nafarroa, 21 (Irun)",43.339466092709856,-1.7839457728130914,9.0,0
4178,,Hondarribia Kalea,43.34248958616137,-1.7990971071288415,9.0,0
4068,,Gibeleta,43.3442262000623,-1.804997203601022,9.0,0
4069,,Hirubide,43.341914898532735,-1.8087189776477104,9.0,0
4070,,Puiana,43.33982613239457,-1.8113381720623496,9.0,0
4071,,Bidasoa Ospitalea,43.3416734031618,-1.814941536470777,9.0,0
2809,,Txingudi Ikastola,43.34294557229517,-1.816927757411463,9.0,0
7071,,Urdanibia Berri,43.3369596500414,-1.81711801042383,9.0,0
7072,,Aristegi Enbajadorea,43.339686834680144,-1.8117973431417336,9.0,0
4072,,Aldabe Mendia 13,43.33963041113059,-1.81070048950216,9.0,0
4073,,Anaka 40,43.340782130506845,-1.808025594665996,9.0,0
98,,Anaka 1,43.34095148888739,-1.8018291929653512,9.0,0
4074,,Geltoki - EstaciÃ³n,43.34080677061191,-1.7991919644461565,9.0,0
4075,,San Juan,43.33929364914444,-1.7889084829973338,9.0,0
4076,,"Avda. Nafarroa, 4 (Irun)",43.33936916431303,-1.7841450915907056,9.0,0
4077,,"Avda. Nafarroa, 18 (Irun)",43.33956416003538,-1.78131613195918,9.0,0
4078,,"Iglesia - DarÃ­o De Regoyos, 4 (Irun)",43.34051892422031,-1.7771272164697651,9.0,0
4797,,Dario Regoyos 10,43.34130271606552,-1.7754830131661172,9.0,0
4079,,DarÃ­o De Regoyos Cruce Con JosÃ© Maria Franco (Irun),43.3414308996455,-1.771483275360543,9.0,0
4080,,"DarÃ­o De Regoyos, 58",43.34174356174147,-1.7662337537613384,9.0,0
4081,,Lastaola,43.341831005425625,-1.7618276752762627,9.0,0
5012,,Txingudi Merkataritza Gunea,43.32039853230428,-1.8362220550805524,9.0,0
15,,Arbes,43.336863827398254,-1.7814071530200053,9.0,0
4796,,Alzukaitz,43.336314102439474,-1.7779887722160903,9.0,0
315,,Blaia 22,43.336709,-1.77501,9.0,0
12,,Hilerria,43.33792909343965,-1.7707273624144382,9.0,0
13,,Harrobieta,43.34016706264804,-1.768671329867965,9.0,0
320,,JosÃ© MarÃ­a Franco,43.34072182166678,-1.770856062550637,9.0,0
14,,Portu Plazatxoa,43.341200549544645,-1.7726722602423095,9.0,0
4306,,CÃ©sar Figuerido,43.338575887093086,-1.776463046158953,9.0,0
7073,,Juan Wollmer 5,43.33785197476222,-1.779499951472267,9.0,0
4086,,Aduana,43.338032126097566,-1.7982104081022103,9.0,0
89,,La Salle,43.335294790554826,-1.799066218402816,9.0,0
121,,Olagizon - Ferrones,43.334198754215805,-1.8027391161305308,9.0,0
122,,Arturo CampiÃ³n,43.33567212855499,-1.8041411137367087,9.0,0
5975,,Gobaragin Kalea (Lavanderas),43.33378267838252,-1.8077307834843928,9.0,0
5973,,Elizatxo 54,43.33148327744111,-1.810008390238664,9.0,0
110,,Bizkaia 10,43.32966810476167,-1.8155697102102788,9.0,0
5976,,Andrearriaga 14,43.328502564770666,-1.8195393408953744,9.0,0
4090,,Aranibar,43.32855895511896,-1.8241389514046296,9.0,0
2064,,San Martzial Txingudi Udal Kirol Gunea,43.33477744581487,-1.7698781142958475,9.0,0
5978,,Elizatxo Hiribidea 36 - Oinaurre,43.33272396631652,-1.805506498145813,9.0,0
85,,Arakistain,43.33019006738046,-1.8233920707323736,9.0,0
5971,,Araso (PolÃ­gono),43.32475865567,-1.835534469092656,9.0,0
117,,Letxunborro 91,43.33080766057622,-1.821283234498255,9.0,0
4302,,Elizatxo 11,43.33629241732336,-1.7963203251367104,9.0,0
